브랜드명,지점명,업체유형,도로명주소,위도,경도,지역,ID,연락처,주차시설,평점,판매자ID,판매상품목록
GS25,문막으뜸점,편의점,"강원도 원주시 문막읍 문막시장1길 27, (문막리)",37.30699193,127.8169849,강원,,,,,,
이디야,우두동점,프렌차이즈,"강원도 춘천시 충열로 39, (우두동)",37.89949267,127.732714,강원,,,,,,
GS25,원주단계점,편의점,"강원도 원주시 장미공원길 25-13, (단계동)",37.34596128,127.9325242,강원,,,,,,
GS25,속초시외터미널점,편의점,"강원도 속초시 장안로 15, (동명동)",38.21147879,128.5910876,강원,,,,,,
GS25,춘천신북점,편의점,"강원도 춘천시 신북읍 신샘밭로 364, (율문리)",37.92482435,127.7509356,강원,,,,,,
GS25,태백은주점,편의점,"강원도 태백시 갈골길 7, (철암동, 태백철암)",37.12878168,129.0458754,강원,,,,,,
GS25,태백행복점,편의점,"강원도 태백시 편들길 43, (문곡동, 태백문곡아파트)",37.11909489,129.0041751,강원,,,,,,
이디야,철원와수점,프렌차이즈,"강원도 철원군 서면 와수로181번길 25-21, (와수리)",38.23914669,127.4381091,강원,,,,,,
GS25,경포현대점,편의점,"강원도 강릉시 경포로463번안길 15, (저동)",37.80179494,128.9011659,강원,,,,,,
이디야,하이원점,프렌차이즈,"강원도 정선군 고한읍 하이원길 265-1, (고한리)",37.20948766,128.8278065,강원,,,,,,
스타벅스,오션월드2호점,프렌차이즈,"강원도 홍천군 서면 한치골길 262, (팔봉리)",37.65232374,127.6872729,강원,,,,,,
GS25,원주점,편의점,"강원도 원주시 서원대로 390, (단구동)",37.33140705,127.9478844,강원,,,,,,
이디야,춘천애막골점,프렌차이즈,"강원도 춘천시 후석로186번길 18, (석사동)",37.86730991,127.754289,강원,,,,,,
이디야,무실점,프렌차이즈,"강원도 원주시 시청로 70, (무실동)",37.33738803,127.9263699,강원,,,,,,
버거킹,비발디점,프렌차이즈,"강원도 홍천군 서면 한치골길 262, (팔봉리)",37.65232374,127.6872729,강원,,,,,,
스타벅스,대명델피노리조트점,프렌차이즈,"강원도 고성군 토성면 미시령옛길 1153, (원암리)",38.21312824,128.4934084,강원,,,,,,
스타벅스,강대점,프렌차이즈,"강원도 춘천시 서부대성로 243-1, (효자동)",37.8727596,127.7450866,강원,,,,,,
맥도날드,춘천퇴계DT점,프렌차이즈,"강원도 춘천시 영서로 2173, (퇴계동)",37.85915884,127.7310413,강원,,,,,,
GS25,원주단구점,편의점,"강원도 원주시 단구초교길 12-18, (단구동)",37.32096069,127.9659558,강원,,,,,,
스타벅스,속초중앙로점,프렌차이즈,"강원도 속초시 중앙로 123, (금호동)",38.20262143,128.5894632,강원,,,,,,
버거킹,대명비발디점,프렌차이즈,"강원도 홍천군 서면 한치골길 262, (팔봉리)",37.65232374,127.6872729,강원,,,,,,
GS25,원주으뜸점,편의점,"강원도 원주시 서원대로 410, (단구동)",37.32977708,127.9503229,강원,,,,,,
이디야,강릉교동점,프렌차이즈,"강원도 강릉시 솔올로 39, (교동)",37.76555119,128.8779352,강원,,,,,,
GS25,혁신점,편의점,"강원도 원주시 혁신로 37-1, (반곡동)",37.32400042,127.9786372,강원,,,,,,
탐앤탐스,원주혁신점,프렌차이즈,"강원도 원주시 혁신로 153, (반곡동)",37.32308282,127.9904399,강원,,,,,,
탐앤탐스,원주혁신점,프렌차이즈,"강원도 원주시 세계로 3, (반곡동)",37.3245334,127.9880476,강원,,,,,,
스타벅스,춘천이마트점,프렌차이즈,"강원도 춘천시 경춘로 2341, (온의동)",37.86395609,127.7172604,강원,,,,,,
GS25,강원대정문,편의점,"강원도 춘천시 백령로 7, (효자동)",37.8655041,127.7359055,강원,,,,,,
GS25,후평사거리점,편의점,"강원도 춘천시 후석로344번길 3, (후평동)",37.88158891,127.7489213,강원,,,,,,
GS25,횡계수하점,편의점,"강원도 평창군 대관령면 올림픽로 300, (수하리)",37.66238059,128.699076,강원,,,,,,
GS25,강릉에이스점,편의점,"강원도 강릉시 솔올로 51, (교동)",37.76668451,128.8781983,강원,,,,,,
GS25,동해프라임점,편의점,"강원도 동해시 양지길 28, (효가동)",37.49834627,129.1075203,강원,,,,,,
GS25,원주일번가점,편의점,"강원도 원주시 토지길 12, (단구동)",37.32311164,127.9575374,강원,,,,,,
GS25,영월고씨굴점,편의점,"강원도 영월군 김삿갓면 영월동로 1121-8, (진별리)",37.13043516,128.5360371,강원,,,,,,
GS25,원주영진점,편의점,"강원도 원주시 현충로 155, (태장동, 영진2차)",37.36814635,127.9501396,강원,,,,,,
GS25,원주금대로점,편의점,"강원도 원주시 치악로 1651, (단구동)",37.33014082,127.9588989,강원,,,,,,
GS25,횡계올리브점,편의점,"강원도 평창군 대관령면 눈마을길 37, (횡계리)",37.67134028,128.7090902,강원,,,,,,
GS25,홍천로점,편의점,"강원도 홍천군 홍천읍 홍천로 289, (희망리)",37.68900545,127.8775057,강원,,,,,,
GS25,원주태장대로점,편의점,"강원도 원주시 현충로 295, (태장동, 요진보네르카운티2차)",37.37992269,127.9474895,강원,,,,,,
스타벅스,문막점,프렌차이즈,"강원도 원주시 문막읍 문막시장1길 32, (문막리)",37.3069553,127.8166015,강원,,,,,,
GS25,강릉내곡점,편의점,"강원도 강릉시 남산초교길12번길 33, (내곡동)",37.74484033,128.8870743,강원,,,,,,
GS25,원주뜨란채점,편의점,"강원도 원주시 시청로 90-1, (무실동)",37.33543168,127.9248822,강원,,,,,,
GS25,강릉센트럴,편의점,"강원도 강릉시 대학길 12-1, (금학동)",37.75420546,128.8961399,강원,,,,,,
GS25,포남타운점,편의점,"강원도 강릉시 강릉대로 443, (포남동)",37.77310468,128.911953,강원,,,,,,
GS25,양양서문점,편의점,"강원도 양양군 양양읍 양양로 122-1, (서문리)",38.07358181,128.6160881,강원,,,,,,
GS25,시고성간성점,편의점,"강원도 고성군 간성읍 간성로 64-1, (하리)",38.37958604,128.4678231,강원,,,,,,
GS25,속초동명점,편의점,"강원도 속초시 중앙로 205, (동명동)",38.20888465,128.5927452,강원,,,,,,
GS25,원주터미널점,편의점,"강원도 원주시 서원대로 171, (단계동)",37.34481587,127.9307983,강원,,,,,,
GS25,태백황지점,편의점,"강원도 태백시 번영로 343, (황지동)",37.1719398,128.9908434,강원,,,,,,
GS25,철원금강점,편의점,"강원도 철원군 동송읍 금학로201번길 9, (이평리, 금강아미움아파트)",38.20645141,127.2178855,강원,,,,,,
GS25,동해하나리움점,편의점,"강원도 동해시 평원로 115, (평릉동, 동해하나리움)",37.53344537,129.1119426,강원,,,,,,
GS25,춘천중앙점,편의점,"강원도 춘천시 남춘로 47, (효자동)",37.86519795,127.7320082,강원,,,,,,
GS25,홍천설악로점,편의점,"강원도 홍천군 홍천읍 설악로 1016, (상오안리)",37.65651196,127.8262968,강원,,,,,,
GS25,양양정암점,편의점,"강원도 양양군 강현면 동해대로 3371, (정암리)",38.1387372,128.6150726,강원,,,,,,
GS25,춘천그린점,편의점,"강원도 춘천시 효자문길 3, (효자동)",37.87129813,127.7320998,강원,,,,,,
GS25,강릉강일점,편의점,"강원도 강릉시 화부산로 97, (교동)",37.76470483,128.8886735,강원,,,,,,
GS25,속사IC점,편의점,"강원도 평창군 용평면 운두령로 15, (속사리)",37.63899074,128.4959775,강원,,,,,,
GS25,춘천승리점,편의점,"강원도 춘천시 우묵길78번길 18, (퇴계동)",37.86670473,127.725081,강원,,,,,,
GS25,강릉교동점,편의점,"강원도 강릉시 가작로 14, (교동)",37.76916171,128.8770699,강원,,,,,,
GS25,봄내박물관점,편의점,"강원도 춘천시 우석로 46, (석사동)",37.8631219,127.7508479,강원,,,,,,
GS25,춘천후석로점,편의점,"강원도 춘천시 후석로46번길 18, (석사동)",37.85768155,127.7433316,강원,,,,,,
GS25,동해부곡점,편의점,"강원도 동해시 발한로 61, (부곡동)",37.53792636,129.1020292,강원,,,,,,
GS25,강릉중앙시장,편의점,"강원도 강릉시 금성로 18, (금학동)",37.75447605,128.8984695,강원,,,,,,
GS25,거진항점,편의점,"강원도 고성군 거진읍 거탄진로 155-1, (거진리)",38.44828886,128.4571536,강원,,,,,,
탐앤탐스,춘천점,프렌차이즈,"강원도 춘천시 명동길 23, (죽림동)",37.87821442,127.7266069,강원,,,,,,
GS25,강릉문화점,편의점,"강원도 강릉시 문화의길8번길 2, (임당동)",37.75486456,128.8947747,강원,,,,,,
GS25,원주단계점,편의점,"강원도 원주시 북원로 2247, (단계동)",37.34643033,127.9333477,강원,,,,,,
GS25,편의점,편의점,"강원도 춘천시 우석로 14-1, (석사동)",37.86193474,127.7476469,강원,,,,,,
GS25,원주관설점,편의점,"강원도 원주시 나비허리길 118, (관설동)",37.32096868,127.9625596,강원,,,,,,
GS25,강일타운점,편의점,"강원도 원주시 남원로 562, (개운동)",37.33417357,127.9480969,강원,,,,,,
GS25,남춘천역점,편의점,"강원도 춘천시 영서로 2261, (퇴계동)",37.86392436,127.7228637,강원,,,,,,
GS25,강릉현대점,편의점,"강원도 강릉시 관대길16번길 6, (내곡동, 내곡주공아파트)",37.74184639,128.878994,강원,,,,,,
GS25,원주상지원룸점,편의점,"강원도 원주시 상지대길 34-14, (우산동)",37.3703395,127.9383508,강원,,,,,,
GS25,강릉공단점,편의점,"강원도 강릉시 강변로534번길 22, (입암동)",37.76425117,128.9196189,강원,,,,,,
GS25,편의점,편의점,"강원도 화천군 사내면 포화로 1142, (사창리)",38.06854986,127.5223969,강원,,,,,,
GS25,평창대화점,편의점,"강원도 평창군 대화면 대화3길 46, (대화리)",37.50057146,128.4549327,강원,,,,,,
GS25,영월터미널점,편의점,"강원도 원주시 개봉교길 21, (개운동)",37.343837,127.9568034,강원,,,,,,
GS25,한림대점,편의점,"강원도 춘천시 삭주로 66, (교동)",37.88331357,127.7382065,강원,,,,,,
GS25,춘천아이씨티점,편의점,"강원도 춘천시 퇴계로93번길 3, (퇴계동)",37.8624469,127.7307339,강원,,,,,,
맥도날드,원주단구DT점,프렌차이즈,"강원도 원주시 서원대로 426, (단구동)",37.32910167,127.9513389,강원,,,,,,
GS25,사북중앙점,편의점,"강원도 정선군 사북읍 지장천로 699, (사북리)",37.22619642,128.8249015,강원,,,,,,
GS25,도계새롬점,편의점,"강원도 삼척시 도계읍 도계우회로2길 8, 104동  (도계리, 새롬아파트)",37.23749548,129.0462711,강원,,,,,,
GS25,속초럭키점,편의점,"강원도 속초시 만천길 20-2, (교동)",38.19961269,128.5748249,강원,,,,,,
GS25,속초타워점,편의점,"강원도 속초시 철새길 43, (조양동)",38.19198731,128.582779,강원,,,,,,
GS25,원주태장주공점,편의점,"강원도 원주시 흥양로51번길 20, (태장동)",37.38526099,127.9567571,강원,,,,,,
GS25,엘리시안강촌점,편의점,"강원도 춘천시 남산면 북한강변길 688, (백양리)",37.83013203,127.5787958,강원,,,,,,
GS25,화천사내점,편의점,"강원도 화천군 사내면 수피령로 25, (사창리)",38.06968633,127.5249197,강원,,,,,,
GS25,원주연대점,편의점,"강원도 원주시 흥업면 세동길 51, (매지리, 원주매지청솔아파트)",37.27773162,127.9098965,강원,,,,,,
GS25,정선리조트점,편의점,"강원도 정선군 고한읍 물한리길 8, (고한리)",37.2115714,128.8351976,강원,,,,,,
GS25,동해이도점,편의점,"강원도 동해시 이원길 25, (귀운동)",37.47981465,129.09464,강원,,,,,,
GS25,편의점,편의점,"강원도 철원군 서면 와수로173번길 25, (와수리)",38.23865498,127.4370276,강원,,,,,,
GS25,강릉현대점,편의점,"강원도 강릉시 범일로 645, (내곡동, 내곡동현대아파트)",37.7454872,128.8837234,강원,,,,,,
GS25,홍천아이파크점,편의점,"강원도 홍천군 홍천읍 남산마을길 13-1, (연봉리)",37.6841912,127.8838515,강원,,,,,,
GS25,화천사내점,편의점,"강원도 화천군 사내면 사내로1길 12, (사창리)",38.07015243,127.524324,강원,,,,,,
GS25,인제기린점,편의점,"강원도 인제군 기린면 기린로 41, (현리)",37.95601394,128.3179073,강원,,,,,,
GS25,낙산해변점,편의점,"강원도 양양군 강현면 낙산사로 46, (전진리)",38.12142763,128.6307005,강원,,,,,,
GS25,강릉제일점,편의점,"강원도 강릉시 강릉대로 171-1, (교동)",37.75764602,128.8891792,강원,,,,,,
GS25,삼척건지점,편의점,"강원도 삼척시 엑스포로 174, (건지동, 건지주공아파트)",37.43605843,129.1479477,강원,,,,,,
GS25,강릉대점,편의점,"강원도 강릉시 지변길 22, (지변동)",37.77296102,128.8726197,강원,,,,,,
GS25,만도원주공장점,편의점,"강원도 원주시 문막읍 문막공단길 80, (반계리)",37.29474663,127.8007951,강원,,,,,,
GS25,팔봉산점,편의점,"강원도 홍천군 서면 한치골길 1023, (팔봉리)",37.6984115,127.7006308,강원,,,,,,
GS25,강릉임당점,편의점,"강원도 강릉시 경강로 2079, (임당동)",37.75397436,128.894537,강원,,,,,,
GS25,강릉영진점,편의점,"강원도 강릉시 연곡면 해안로 1459, (영진리)",37.86938502,128.8445339,강원,,,,,,
GS25,편의점,편의점,"강원도 춘천시 동면 만천로 240, (장학리)",37.88965785,127.755454,강원,,,,,,
GS25,춘천대로점,편의점,"강원도 춘천시 영서로 2025, (석사동)",37.85258693,127.7457356,강원,,,,,,
GS25,원주역점,편의점,"강원도 원주시 평원로 155, (학성동)",37.35633035,127.9446386,강원,,,,,,
GS25,영월세경대점,편의점,"강원도 영월군 영월읍 중앙로 4, (하송리)",37.18222041,128.4640874,강원,,,,,,
GS25,정선스타점,편의점,"강원도 정선군 정선읍 녹송로 63, (봉양리)",37.38264651,128.6706458,강원,,,,,,
GS25,정선여량점,편의점,"강원도 정선군 여량면 여량6길 11, (여량리)",37.47231699,128.7220161,강원,,,,,,
GS25,강릉유천,편의점,"강원도 강릉시 선수촌로63번길 22-4, (홍제동)",37.75675753,128.8681622,강원,,,,,,
GS25,시여량2호점,편의점,"강원도 정선군 여량면 여량6길 24-1, (여량리)",37.47288736,128.7230504,강원,,,,,,
GS25,편의점,편의점,"강원도 춘천시 동내면 외솔길 47, (거두리)",37.85684728,127.7534942,강원,,,,,,
GS25,화천간동점,편의점,"강원도 화천군 간동면 오봉산길 1, (간척리)",38.02867032,127.8169585,강원,,,,,,
GS25,사북선명점,편의점,"강원도 정선군 사북읍 파랑새길 28, (사북리)",37.22368033,128.8251896,강원,,,,,,
GS25,하이원밸리점,편의점,"강원도 정선군 고한읍 고한3길 50-3, (고한리)",37.19249671,128.838772,강원,,,,,,
GS25,홍천태학점,편의점,"강원도 홍천군 홍천읍 홍천로 646, (태학리)",37.70600004,127.9079176,강원,,,,,,
GS25,조양대로점,편의점,"강원도 속초시 조양상가길 5, (조양동)",38.19126667,128.5791088,강원,,,,,,
GS25,횡계점,편의점,"강원도 평창군 대관령면 대관령로 100, (횡계리)",37.67230616,128.7072969,강원,,,,,,
GS25,봄내뜨란채점,편의점,"강원도 춘천시 승지골길16번길 49, (퇴계동)",37.84886559,127.745703,강원,,,,,,
GS25,낙산터미널점,편의점,"강원도 양양군 강현면 동해대로 3089, (주청리)",38.11768379,128.6282278,강원,,,,,,
GS25,정선봉양점,편의점,"강원도 정선군 정선읍 정선로 1349, (봉양리)",37.37982797,128.6639247,강원,,,,,,
GS25,원주단구점,편의점,"강원도 원주시 천매봉길 116, (단구동)",37.32600719,127.9431489,강원,,,,,,
GS25,강릉대점,편의점,"강원도 강릉시 옥천로61번길 12, (옥천동)",37.75871973,128.8984868,강원,,,,,,
GS25,조양점,편의점,"강원도 속초시 온정로 6, (조양동)",38.18660337,128.5928043,강원,,,,,,
GS25,삼척옥원점,편의점,"강원도 삼척시 원덕읍 삼척로 648, (옥원리)",37.19137066,129.3307834,강원,,,,,,
GS25,원주동화점,편의점,"강원도 원주시 문막읍 동화초교길 15, (동화리, 심로바이올린사원아파트)",37.3273823,127.8277343,강원,,,,,,
GS25,인제용대점,편의점,"강원도 인제군 북면 미시령로 999, (용대리)",38.19506018,128.3267413,강원,,,,,,
GS25,덕산비치점,편의점,"강원도 삼척시 근덕면 덕산해변길 92, (덕산리)",37.38607228,129.240312,강원,,,,,,
GS25,홍천터미널점,편의점,"강원도 홍천군 홍천읍 석화로 126-5, (희망리)",37.69629189,127.8928023,강원,,,,,,
GS25,설악일성콘도점,편의점,"강원도 고성군 토성면 고성대로 47-24, (원암리)",38.2096135,128.5021315,강원,,,,,,
GS25,한림대학사1점,편의점,"강원도 춘천시 봉의산길22번길 29, (옥천동)",37.88566612,127.7345716,강원,,,,,,
GS25,속초동명점,편의점,"강원도 속초시 수복로234번길 42, (동명동)",38.20931224,128.5919265,강원,,,,,,
GS25,춘천명동점,편의점,"강원도 춘천시 아침길 14, (조양동)",37.87926906,127.7307068,강원,,,,,,
GS25,강릉초당점,편의점,"강원도 강릉시 연당길 89, A동  (초당동, 아트피아아파트)",37.78513949,128.9134746,강원,,,,,,
GS25,춘천유정점,편의점,"강원도 춘천시 김유정로 1887, (퇴계동)",37.85473943,127.7370916,강원,,,,,,
GS25,춘천현진점,편의점,"강원도 춘천시 스무숲길 1, (석사동)",37.85007945,127.7487214,강원,,,,,,
GS25,속초부영점,편의점,"강원도 속초시 조양로142번길 8, (조양동)",38.18810923,128.5853737,강원,,,,,,
GS25,사북선명점,편의점,"강원도 정선군 사북읍 파랑새길 30, (사북리, 사북선명1차)",37.22400994,128.8257341,강원,,,,,,
GS25,영월삼거리점,편의점,"강원도 영월군 북면 원동재로 6-1, (문곡리)",37.21249136,128.4175152,강원,,,,,,
GS25,속초등대점,편의점,"강원도 속초시 영랑해안길 5, (동명동)",38.21265572,128.6006208,강원,,,,,,
GS25,속초터미널점,편의점,"강원도 속초시 동해대로 3992, (조양동)",38.19044954,128.5983265,강원,,,,,,
GS25,강릉온누리점,편의점,"강원도 강릉시 동부시장3길 17, (옥천동)",37.75923074,128.9011827,강원,,,,,,
GS25,춘천하늘점,편의점,"강원도 춘천시 퇴계로 108, (퇴계동, 유승한내들아파트)",37.86164564,127.7310209,강원,,,,,,
GS25,태백행복점,편의점,"강원도 태백시 편들길 43-1, (문곡동)",37.11924334,129.0036707,강원,,,,,,
GS25,후평점,편의점,"강원도 춘천시 보안길 65, (후평동)",37.88018634,127.7503471,강원,,,,,,
GS25,홍천미진점,편의점,"강원도 홍천군 홍천읍 석화로 114, (희망리)",37.69629935,127.8911014,강원,,,,,,
GS25,홍천터미널점,편의점,"강원도 홍천군 홍천읍 홍천로3길 7, (희망리)",37.68917918,127.8799659,강원,,,,,,
GS25,양구정림점,편의점,"강원도 양구군 양구읍 박수근로 322, (정림리, 양구보배아파트)",38.10022495,127.9828827,강원,,,,,,
GS25,춘천시티점,편의점,"강원도 춘천시 서부대성로 205, (효자동)",37.87428333,127.7414098,강원,,,,,,
GS25,춘천중앙로점,편의점,"강원도 춘천시 금강로 42, (중앙로2가)",37.88065708,127.7269844,강원,,,,,,
GS25,삼척중앙점,편의점,"강원도 삼척시 남산길 71, (남양동)",37.43526332,129.1647494,강원,,,,,,
GS25,원주단관점,편의점,"강원도 원주시 나비허리길 50, (단구동)",37.32373359,127.9580448,강원,,,,,,
GS25,시편의점,편의점,"강원도 동해시 중앙로 249, (천곡동)",37.52275365,129.1134695,강원,,,,,,
GS25,강릉발전소점,편의점,강원도 강릉시 강동면 율곡로 1953,37.72733866,128.9786393,강원,,,,,,
GS25,춘천교동점,편의점,"강원도 춘천시 삭주로70번길 18, (교동)",37.88199959,127.7388932,강원,,,,,,
GS25,속초시외터미널점,편의점,"강원도 속초시 장안로 19, (동명동)",38.21139575,128.5914752,강원,,,,,,
GS25,원주우산점,편의점,"강원도 원주시 진광길 19, (우산동)",37.37178215,127.9400545,강원,,,,,,
GS25,홍천대명점,편의점,"강원도 춘천시 서면 박사로 844, (현암리)",37.89194133,127.691856,강원,,,,,,
GS25,춘천사북점,편의점,"강원도 춘천시 사북면 영서로 4714, (신포리)",38.02929368,127.6415833,강원,,,,,,
GS25,낙산점,편의점,"강원도 양양군 강현면 해맞이길 46, (주청리)",38.11752589,128.6324689,강원,,,,,,
GS25,원주남원로점,편의점,"강원도 원주시 남원로 629, (명륜동)",37.33936561,127.9519643,강원,,,,,,
GS25,춘천으뜸점,편의점,"강원도 춘천시 춘천로 70, (효자동)",37.870471,127.725067,강원,,,,,,
GS25,삼척임원점,편의점,"강원도 삼척시 원덕읍 임원중앙로 34, (임원리)",37.23070277,129.3442983,강원,,,,,,
GS25,설악점,편의점,"강원도 속초시 노리5길 5, (노학동)",38.18975998,128.5571901,강원,,,,,,
GS25,평창진부점,편의점,"강원도 평창군 진부면 진부중앙로 67, (하진부리)",37.63743158,128.5585578,강원,,,,,,
GS25,춘천센터점,편의점,"강원도 춘천시 춘천로 360, (후평동)",37.88550174,127.7500335,강원,,,,,,
GS25,원주일산점,편의점,"강원도 원주시 남산로 75, (일산동)",37.34479532,127.9429541,강원,,,,,,
이디야,강원양구점,프렌차이즈,"강원도 양구군 양구읍 중앙길 10, (상리)",38.10709128,127.98913,강원,,,,,,
GS25,경포윌점,편의점,"강원도 강릉시 창해로 419, (강문동)",37.79912731,128.9141124,강원,,,,,,
GS25,진부점,편의점,"강원도 평창군 진부면 송정택지1길 34, (송정리)",37.63696902,128.5629846,강원,,,,,,
GS25,시정선남면점,편의점,"강원도 정선군 남면 칠현로 64, (문곡리)",37.26764624,128.7405326,강원,,,,,,
GS25,신남휴게소점,편의점,"강원도 인제군 남면 설악로 851, (신남리)",37.98177775,128.0949243,강원,,,,,,
GS25,주문진점,편의점,"강원도 강릉시 주문진읍 시장3길 4-5, (주문리)",37.89187111,128.8284757,강원,,,,,,
GS25,원주판부점,편의점,"강원도 원주시 판부면 매봉길 14, (서곡리)",37.32138417,127.9425318,강원,,,,,,
GS25,영월터미널점,편의점,"강원도 영월군 영월읍 중앙1로 17-3, (하송리)",37.18262913,128.4655652,강원,,,,,,
GS25,원주삼광점,편의점,"강원도 원주시 행구로 83, (봉산동)",37.34198379,127.9662736,강원,,,,,,
GS25,시공지천점,편의점,"강원도 춘천시 옛경춘로 839, (삼천동)",37.87213333,127.7081927,강원,,,,,,
이디야,원통점,프렌차이즈,"강원도 인제군 북면 금강로 5, (원통리)",38.12138627,128.2082098,강원,,,,,,
GS25,동해동인병원점,편의점,"강원도 동해시 하평로 26, (평릉동)",37.5306074,129.1071146,강원,,,,,,
GS25,홍천미르점,편의점,"강원도 홍천군 홍천읍 연봉로 37, (연봉리)",37.68163506,127.8777672,강원,,,,,,
이디야,석사점,프렌차이즈,"강원도 춘천시 퇴계농공로 10, (석사동)",37.85239399,127.7440204,강원,,,,,,
GS25,신북산천점,편의점,"강원도 춘천시 신북읍 장본길 3, (산천리)",37.94732424,127.7516106,강원,,,,,,
GS25,대성점,편의점,"강원도 삼척시 중앙시장길 48-29, (남양동)",37.44240107,129.1664308,강원,,,,,,
이디야,강원화천점,프렌차이즈,"강원도 화천군 화천읍 상승로 42-7, (하리)",38.10466573,127.7044083,강원,,,,,,
GS25,춘천강남점,편의점,"강원도 춘천시 충혼길52번길 18, (온의동)",37.86074311,127.718807,강원,,,,,,
GS25,춘천타운점,편의점,"강원도 춘천시 춘주로 174, (퇴계동, 그린타운삼익코오롱아파트)",37.85786974,127.7268525,강원,,,,,,
GS25,원주일산로점,편의점,"강원도 원주시 일산로 51, (일산동)",37.34699697,127.9494086,강원,,,,,,
GS25,강릉지변점,편의점,"강원도 강릉시 죽헌길 83, (지변동)",37.77673193,128.8744235,강원,,,,,,
GS25,편의점,편의점,"강원도 정선군 사북읍 사북1길 37, (사북리)",37.22758103,128.8136252,강원,,,,,,
GS25,원주에버빌점,편의점,"강원도 원주시 단관길 104-12, (단구동)",37.31988559,127.9573926,강원,,,,,,
GS25,춘천신북점,편의점,"강원도 춘천시 신북읍 신샘밭로 366, (율문리)",37.92483408,127.7512768,강원,,,,,,
GS25,지경삼거리점,편의점,"강원도 철원군 김화읍 청양로 92, (청양리)",38.23571512,127.3509905,강원,,,,,,
GS25,속초부영점,편의점,"강원도 속초시 조양로142번길 15, (조양동)",38.18888483,128.5852201,강원,,,,,,
GS25,사북산수빌점,편의점,"강원도 정선군 사북읍 소금강로 3535, (사북리, 정선산수빌임대아파트)",37.22851513,128.837334,강원,,,,,,
GS25,주문진신리점,편의점,"강원도 강릉시 주문진읍 신리천로 58, (교항리)",37.88394315,128.8244989,강원,,,,,,
GS25,속초영동점,편의점,"강원도 속초시 미시령로3337번길 6-49, (교동)",38.20667421,128.5734075,강원,,,,,,
이디야,강릉중앙점,프렌차이즈,"강원도 강릉시 금성로 58, (금학동)",37.75206109,128.8949452,강원,,,,,,
탐앤탐스,강릉점,프렌차이즈,"강원도 강릉시 경강로 2120, (옥천동)",37.7557002,128.8986319,강원,,,,,,
GS25,원주상지원룸점,편의점,"강원도 원주시 돌터1길 23, (우산동)",37.37030353,127.9384976,강원,,,,,,
GS25,교동점,편의점,"강원도 춘천시 삭주로70번길 18, (교동)",37.88199959,127.7388932,강원,,,,,,
GS25,속초조양점,편의점,"강원도 속초시 온정로 6, (조양동, 조양주공1단지)",38.18444541,128.5937229,강원,,,,,,
GS25,원주뜨란채점,편의점,"강원도 원주시 시청로 90, (무실동, 무실뜨란채주공아파트)",37.33436003,127.9259553,강원,,,,,,
GS25,원주영진점,편의점,"강원도 원주시 현충로 157, (태장동)",37.36850682,127.9502071,강원,,,,,,
GS25,태백장성점,편의점,"강원도 태백시 장성1길 53, (장성동, 타워빌아파트)",37.10057879,129.0071593,강원,,,,,,
GS25,태백3주공점,편의점,"강원도 태백시 고원로 279, (황지동, 황지주공3차)",37.17546871,128.9815091,강원,,,,,,
GS25,원주연대점,편의점,"강원도 원주시 흥업면 세동길 51-1, (매지리)",37.27773224,127.9107084,강원,,,,,,
GS25,신동정원점,편의점,"강원도 정선군 신동읍 의림로 201, (예미리)",37.21063564,128.6412134,강원,,,,,,
GS25,강릉용강점,편의점,"강원도 강릉시 임영로 155, (용강동)",37.755069,128.8915769,강원,,,,,,
GS25,횡성휴먼시아점,편의점,"강원도 횡성군 횡성읍 앞들서2로 34, (읍하리, 횡성읍하엘에이치)",37.48830782,127.9799927,강원,,,,,,
GS25,강릉이편한점,편의점,"강원도 강릉시 가작로 175, (교동)",37.77000283,128.8946279,강원,,,,,,
이디야,퇴계점,프렌차이즈,"강원도 춘천시 퇴계로93번길 15, (퇴계동)",37.86319673,127.7315949,강원,,,,,,
GS25,양구상리점,편의점,"강원도 양구군 양구읍 양구새싹로 22, (정림리)",38.10207261,127.9878537,강원,,,,,,
GS25,춘천본점,편의점,"강원도 춘천시 후석로 45, (석사동)",37.85874133,127.7417596,강원,,,,,,
맥도날드,원주단계점,프렌차이즈,"강원도 원주시 서원대로 154, (단계동)",37.34417452,127.9281804,강원,,,,,,
스타벅스,춘천명동점,프렌차이즈,"강원도 춘천시 중앙로 55, (중앙로2가)",37.88003672,127.7275664,강원,,,,,,
GS25,영월세경대점,편의점,"강원도 영월군 영월읍 하송로 197, (하송리)",37.17282363,128.4542666,강원,,,,,,
GS25,사북아리랑점,편의점,"강원도 정선군 사북읍 사북중앙로 13, (사북리)",37.22716751,128.8160999,강원,,,,,,
맥도날드,속초DT점,프렌차이즈,"강원도 속초시 동해대로 4118, (조양동)",38.18988245,128.5839038,강원,,,,,,
GS25,안목해맞이점,편의점,"강원도 강릉시 창해로14번길 30, (견소동)",37.77201846,128.9479789,강원,,,,,,
나들가게,한신마트,편의점,"강원도 춘천시 서부대성로 34, (요선동, 한신휴플러스아파트)",37.88370134,127.7264616,강원,,,,,,
스타벅스,원주터미널점,프렌차이즈,"강원도 원주시 서원대로 178, (단계동)",37.34385186,127.931104,강원,,,,,,
GS25,정선봉양점,편의점,"강원도 정선군 정선읍 정선로 1355-1, (봉양리)",37.37997766,128.664547,강원,,,,,,
GS25,삼척중앙점,편의점,"강원도 삼척시 남산길 9, (남양동)",37.43643902,129.1670502,강원,,,,,,
나들가게,부영마트,편의점,"강원도 속초시 조양로 163, (조양동, 부영6차)",38.18721789,128.5816223,강원,,,,,,
나들가게,하동마트,편의점,"강원도 영월군 중동면 중동시장길 64, (녹전리)",37.14376682,128.6794048,강원,,,,,,
이디야,흥업점,프렌차이즈,"강원도 원주시 흥업면 남원로 85, (흥업리)",37.30374519,127.919939,강원,,,,,,
GS25,홍천강변점,편의점,"강원도 홍천군 홍천읍 남산강변로2길 2, (연봉리)",37.68630442,127.879585,강원,,,,,,
GS25,삼척터미널점,편의점,"강원도 삼척시 봉황로 9-22, (남양동)",37.4401258,129.1687234,강원,,,,,,
GS25,삼척동부점,편의점,"강원도 삼척시 동해대로 4273, (교동, 동부아파트)",37.4554931,129.1646223,강원,,,,,,
나들가게,천안마트,편의점,"강원도 화천군 상서면 영서로 7714-9, (산양리)",38.20796046,127.6630895,강원,,,,,,
GS25,경포대점,편의점,"강원도 강릉시 창해로 485, (강문동)",37.80344538,128.9091691,강원,,,,,,
스타벅스,용평리조트점,프렌차이즈,"강원도 평창군 대관령면 올림픽로 715, (용산리)",37.65095286,128.7055418,강원,,,,,,
GS25,홍천태림점,편의점,"강원도 홍천군 홍천읍 홍천로 462, (갈마곡리, 태림아파트)",37.69471692,127.8948911,강원,,,,,,
나들가게,세창마트,편의점,"강원도 원주시 남산로 101, (일산동)",37.34597483,127.9410119,강원,,,,,,
나들가게,1번지마트,편의점,"강원도 춘천시 봉의산길22번길 29, (옥천동)",37.88566612,127.7345716,강원,,,,,,
나들가게,한아름슈퍼,편의점,"강원도 속초시 번영로 189, (영랑동)",38.21554865,128.5897959,강원,,,,,,
GS25,삼척에이스,편의점,"강원도 삼척시 정상로 73, (교동)",37.44831052,129.1747614,강원,,,,,,
GS25,후평점,편의점,"강원도 춘천시 후석로 326, (후평동)",37.88006882,127.7501656,강원,,,,,,
나들가게,동보마트,편의점,"강원도 춘천시 공지로200번길 13, (효자동, 동보)",37.86365787,127.7403559,강원,,,,,,
GS25,화천사내점,편의점,"강원도 화천군 사내면 수피령로 27, (사창리)",38.06998346,127.5248722,강원,,,,,,
나들가게,참좋은쌀,편의점,"강원도 속초시 새마을길 16, (조양동)",38.18657341,128.602233,강원,,,,,,
나들가게,프레쉬슈퍼마켓,편의점,"강원도 원주시 백간공원길 29, (단계동)",37.35053474,127.9255331,강원,,,,,,
GS25,원주에버빌점,편의점,"강원도 원주시 단관길 98-3, (단구동)",37.32046235,127.9575276,강원,,,,,,
GS25,봄내양우점,편의점,"강원도 춘천시 공지로317번길 11, (효자동, 양우)",37.86722084,127.7300687,강원,,,,,,
GS25,인제점,편의점,"강원도 인제군 인제읍 비봉로 28, (상동리)",38.0668423,128.1734889,강원,,,,,,
나들가게,둘리네편의점,편의점,"강원도 평창군 방림면 평창대로 1, (방림리)",37.43155858,128.4179605,강원,,,,,,
나들가게,하나마트,편의점,"강원도 원주시 무실로 55, (원동)",37.34623009,127.9472533,강원,,,,,,
GS25,원주봉산점,편의점,"강원도 원주시 행구로 67, (봉산동)",37.3418932,127.9646598,강원,,,,,,
GS25,태백3주공점,편의점,"강원도 태백시 고원로 281, (황지동)",37.17631388,128.981734,강원,,,,,,
나들가게,나광슈퍼,편의점,"강원도 원주시 일산초교길 29, (일산동)",37.34730056,127.9432457,강원,,,,,,
나들가게,주공1호슈퍼,편의점,"강원도 속초시 먹거리길 17, (교동, 속초청초아파트)",38.19743964,128.5751732,강원,,,,,,
맥도날드,춘천명동점,프렌차이즈,"강원도 춘천시 명동길 14, (중앙로2가)",37.87937779,127.7270573,강원,,,,,,
나들가게,정마트,편의점,"강원도 원주시 만대로 89, (무실동, 무실이편한세상)",37.33727434,127.9179284,강원,,,,,,
나들가게,영신마트,편의점,"강원도 태백시 상장남길 63, (황지동)",37.14810295,128.9900821,강원,,,,,,
나들가게,샘물마트,편의점,"강원도 원주시 백간길 16, (단계동)",37.35091303,127.9252505,강원,,,,,,
나들가게,대성마트,편의점,"강원도 춘천시 후만로 15, (후평동)",37.87450669,127.7488544,강원,,,,,,
나들가게,동명마트,편의점,"강원도 영월군 영월읍 영월로 2097-2, (덕포리)",37.1822935,128.4796749,강원,,,,,,
스타벅스,원주단구점,프렌차이즈,"강원도 원주시 서원대로 402, (단구동)",37.33046149,127.9492843,강원,,,,,,
GS25,원주치악점,편의점,"강원도 원주시 치악고교길 9, (관설동)",37.31619151,127.9588049,강원,,,,,,
나들가게,내덕상회,편의점,"강원도 영월군 상동읍 태백산로 2601, (내덕리)",37.11699814,128.775701,강원,,,,,,
나들가게,해뜰마트,편의점,"강원도 철원군 서면 와수로173번길 19, (와수리)",38.23876474,127.4373695,강원,,,,,,
GS25,평창대화점,편의점,"강원도 평창군 대화면 대화중앙로 129-1, (대화리)",37.50050839,128.4549323,강원,,,,,,
스타벅스,강릉안목항점,프렌차이즈,"강원도 강릉시 창해로14번길 40, (견소동)",37.7713999,128.9487088,강원,,,,,,
나들가게,자연마트,편의점,"강원도 철원군 서면 와수로 189, (와수리)",38.24032429,127.4394366,강원,,,,,,
나들가게,신창마트,편의점,"강원도 영월군 영월읍 덕포하리1길 61, (덕포리, 신창하이츠빌라)",37.1746057,128.4799641,강원,,,,,,
GS25,동보점,편의점,"강원도 원주시 시청로 255, (명륜동, 동보노빌리티1차)",37.32452715,127.9387155,강원,,,,,,
이디야,동송터미널점,프렌차이즈,"강원도 철원군 동송읍 이평1로 1, (이평리)",38.20718509,127.2184714,강원,,,,,,
GS25,망상비치점,편의점,"강원도 동해시 동해대로 6270-16, (망상동)",37.59240581,129.0910557,강원,,,,,,
나들가게,인흥슈퍼,편의점,"강원도 고성군 토성면 인흥길 137, (인흥리)",38.23340366,128.5513091,강원,,,,,,
나들가게,드림정육마트,편의점,"강원도 영월군 영월읍 하송로 144, (하송리)",37.17746349,128.4568621,강원,,,,,,
나들가게,영진유통,편의점,"강원도 원주시 학성길 90, (학성동)",37.3533285,127.9422252,강원,,,,,,
GS25,문막동화점,편의점,"강원도 원주시 문막읍 왕건로 36, (동화리)",37.32302408,127.8299333,강원,,,,,,
나들가게,동보마트,편의점,"강원도 원주시 문막읍 원문로 1578, (동화리, 문막동보렉스6차)",37.32174048,127.8334452,강원,,,,,,
GS25,원주태장주공점,편의점,"강원도 원주시 현충로 295, (태장동)",37.38003099,127.9478846,강원,,,,,,
나들가게,돼지마트,편의점,"강원도 원주시 무실로 102, (일산동)",37.34481376,127.9438119,강원,,,,,,
나들가게,아날마트,편의점,"강원도 태백시 태백산로 5136, (황지동, 영조아름다운나날)",37.14578972,128.9930012,강원,,,,,,
나들가게,용광배낚시슈퍼,편의점,"강원도 고성군 토성면 아야진해변길 82, (아야진리)",38.27233839,128.5561633,강원,,,,,,
나들가게,거두마트,편의점,"강원도 춘천시 동내면 거두택지길 56, (거두리)",37.85442216,127.7571841,강원,,,,,,
GS25,남춘천점,편의점,"강원도 춘천시 퇴계로 66, (퇴계동)",37.86334168,127.7280143,강원,,,,,,
나들가게,동부마트,편의점,"강원도 속초시 미시령로3359번길 15, (교동, 동부아파트)",38.20823188,128.5736138,강원,,,,,,
나들가게,동보슈퍼,편의점,"강원도 원주시 원문로 158, (단계동, 동보렉스3차)",37.35677468,127.9326274,강원,,,,,,
맥도날드,강릉점,프렌차이즈,"강원도 강릉시 경강로 2097, (임당동)",37.75497177,128.896081,강원,,,,,,
GS25,신철원점,편의점,"강원도 철원군 갈말읍 삼부연로8번길 2, (신철원리)",38.14495362,127.3087163,강원,,,,,,
GS25,속초조양점,편의점,"강원도 속초시 온정로 6, (조양동, 조양주공1단지)",38.18603683,128.594375,강원,,,,,,
GS25,원주동화점,편의점,"강원도 원주시 문막읍 왕건로 81, (동화리)",37.32669943,127.8291013,강원,,,,,,
나들가게,형제마트,편의점,"강원도 원주시 원문로 67, (학성동)",37.35681404,127.9387344,강원,,,,,,
나들가게,만천할인마트,편의점,"강원도 춘천시 동면 후석로326번길 94, (만천리)",37.8840524,127.7593151,강원,,,,,,
나들가게,베스트할인마트,편의점,"강원도 춘천시 벌말길 106, (석사동)",37.86210806,127.7403386,강원,,,,,,
나들가게,현대하이퍼,편의점,"강원도 원주시 원문로 178-1, (단계동)",37.35660205,127.9301779,강원,,,,,,
나들가게,홀인원마트,편의점,"강원도 원주시 지정면 월송석화로 580, (월송리)",37.4125028,127.8353683,강원,,,,,,
나들가게,남천할인마트,편의점,"강원도 강릉시 단오장길 24, (노암동)",37.74784154,128.8964943,강원,,,,,,
나들가게,원흥편의점,편의점,"강원도 평창군 봉평면 태기로 485-1, (면온리)",37.56370005,128.349354,강원,,,,,,
나들가게,설악할인마트,편의점,"강원도 속초시 청호로 42, (청호동)",38.19380368,128.5978288,강원,,,,,,
나들가게,설악할인마트,편의점,"강원도 속초시 청봉로 183, (설악동)",38.16659088,128.527057,강원,,,,,,
나들가게,조은슈퍼,편의점,"강원도 양구군 양구읍 박수근로 331, (정림리)",38.10146837,127.9832473,강원,,,,,,
GS25,강릉옥천점,편의점,"강원도 강릉시 율곡로 2837, (옥천동)",37.75734015,128.8974374,강원,,,,,,
GS25,주문진신리점,편의점,"강원도 강릉시 주문진읍 신리천로 56, (교항리)",37.88400478,128.8247042,강원,,,,,,
나들가게,늘푸른슈퍼,편의점,"강원도 속초시 동해대로3950번길 12, (조양동)",38.18779944,128.6020947,강원,,,,,,
나들가게,거북DC마트,편의점,"강원도 강릉시 노암길42번길 2, (노암동)",37.74730328,128.9009132,강원,,,,,,
나들가게,임계점,편의점,"강원도 정선군 임계면 백두대간로 1335-6, (봉산리)",37.49357573,128.8477818,강원,,,,,,
나들가게,대보마트,편의점,"강원도 원주시 호저면 원문로 643, (만종리)",37.35282239,127.8995687,강원,,,,,,
GS25,원주비발디점,편의점,"강원도 원주시 모란1길 86, (우산동, 한라비발디1차)",37.3624873,127.9318998,강원,,,,,,
GS25,삼척건지점,편의점,"강원도 삼척시 엑스포로 176, (건지동)",37.43636254,129.1472517,강원,,,,,,
스타벅스,강릉중앙로점,프렌차이즈,"강원도 강릉시 경강로 2096, (임당동)",37.75454747,128.8961894,강원,,,,,,
GS25,춘천으뜸점,편의점,"강원도 춘천시 춘천로 72-1, (효자동)",37.87070553,127.7251798,강원,,,,,,
나들가게,파워마트,편의점,"강원도 춘천시 후만로 119, (후평동, 금호빌리지)",37.87845088,127.7563323,강원,,,,,,
나들가게,역전마트,편의점,"강원도 원주시 원일로 211, (학성동)",37.35556419,127.9441764,강원,,,,,,
GS25,원주제일점,편의점,"강원도 원주시 금불1길 60-6, (단계동)",37.34873524,127.9299933,강원,,,,,,
GS25,춘천희망점,편의점,"강원도 춘천시 후석로46번길 8, (석사동)",37.85807562,127.7422393,강원,,,,,,
탐앤탐스,원주휴게소부산방향점,프렌차이즈,"강원도 원주시 호저면 마근거리길 120, (옥산리)",37.43381734,127.9295413,강원,,,,,,
버거킹,강릉교동SK점,프렌차이즈,"강원도 강릉시 하슬라로 159, (교동)",37.76436983,128.8744369,강원,,,,,,
GS25,태백센터점,편의점,"강원도 태백시 감천로 18, (황지동)",37.15904166,128.9880068,강원,,,,,,
GS25,춘천캐슬점,편의점,"강원도 춘천시 방송길 70, (온의동, 온의롯데캐슬스카이클래스)",37.87013559,127.7166117,강원,,,,,,
탐앤탐스,문막휴게소하행선점,프렌차이즈,"강원도 원주시 문막읍 원문로 1234, (동화리)",37.33526243,127.8582091,강원,,,,,,
GS25,뉴강릉성산점,편의점,"강원도 강릉시 성산면 구산길 92, (구산리)",37.71464103,128.8271561,강원,,,,,,
나들가게,주공마트,편의점,"강원도 속초시 온정로 6, (조양동)",38.18660337,128.5928043,강원,,,,,,
탐앤탐스,문막휴게소상행선점,프렌차이즈,"강원도 원주시 문막읍 개나루길 13, (포진리)",37.2977465,127.8170073,강원,,,,,,
탐앤탐스,원주휴게소춘천방향점,프렌차이즈,"강원도 원주시 호저면 마근거리길 110, (옥산리)",37.43468371,127.9317892,강원,,,,,,
GS25,인제서호점,편의점,"강원도 인제군 북면 원통로 40, (원통리)",38.11179053,128.197885,강원,,,,,,
GS25,원주만대로점,편의점,"강원도 원주시 만대로 92, (무실동)",37.33814831,127.9177695,강원,,,,,,
이디야,춘천온의롯데캐슬점,프렌차이즈,"강원도 춘천시 방송길 70, (온의동, 온의롯데캐슬스카이클래스)",37.87013559,127.7166117,강원,,,,,,
GS25,고성죽왕점,편의점,"강원도 고성군 죽왕면 동해대로 5900, (오호리)",38.32891068,128.5245933,강원,,,,,,
이디야,춘천현대점,프렌차이즈,"강원도 춘천시 춘천로269번길 1, (후평동)",37.88010752,127.7430264,강원,,,,,,
GS25,태백온누리점,편의점,"강원도 태백시 백두대간로 12, (화전동)",37.18189184,128.9784501,강원,,,,,,
스타벅스,휘닉스파크점,프렌차이즈,"강원도 평창군 봉평면 태기로 174, (면온리)",37.57374985,128.3095959,강원,,,,,,
GS25,영월역점,편의점,"강원도 영월군 영월읍 영월로 2105, (덕포리)",37.18272343,128.4803196,강원,,,,,,
GS25,횡계올림픽점,편의점,"강원도 평창군 대관령면 올림픽로 302, (수하리)",37.66228249,128.6989051,강원,,,,,,
GS25,원주혁신8호점,편의점,"강원도 원주시 양지뜰4길 32, (반곡동)",37.32651526,127.9831275,강원,,,,,,
스타벅스,속초DT점,프렌차이즈,"강원도 속초시 동해대로 4114, (조양동)",38.18990693,128.5844177,강원,,,,,,
GS25,원주혁신9호점,편의점,"강원도 원주시 혁신로 400, (반곡동, 푸른숨LH11단지)",37.33723706,127.9748754,강원,,,,,,
맥도날드,동해DT점,프렌차이즈,강원도 동해시 대학로 2,37.5208934,129.1139057,강원,,,,,,
GS25,원주오성점,편의점,"강원도 원주시 판부면 오성마을길 63-13, (서곡리)",37.31874668,127.9485701,강원,,,,,,
이디야,속초중앙점,프렌차이즈,"강원도 속초시 수복로 197-1, (금호동)",38.20529254,128.588617,강원,,,,,,
이디야,연봉점,프렌차이즈,"강원도 홍천군 홍천읍 연봉로 32, (연봉리)",37.68199493,127.8772338,강원,,,,,,
GS25,영월발전소점,편의점,"강원도 영월군 영월읍 중앙로 236, (덕포리)",37.17145173,128.4777371,강원,,,,,,
GS25,원주청솔6차점,편의점,"강원도 원주시 단관초교길 9, (관설동, 원주단관청솔6차)",37.31752731,127.9655174,강원,,,,,,
GS25,주문진대로점,편의점,"강원도 강릉시 주문진읍 연주로 593, (주문리)",37.90480078,128.8220138,강원,,,,,,
GS25,춘천남춘로점,편의점,"강원도 춘천시 남춘로51번길 43, (효자동)",37.86746077,127.728613,강원,,,,,,
이디야,인제점,프렌차이즈,"강원도 인제군 인제읍 인제로 200-1, (상동리)",38.06913204,128.1726738,강원,,,,,,
버거킹,춘천거두GS점,프렌차이즈,"강원도 춘천시 동내면 춘천순환로 59, (거두리)",37.85593052,127.7503039,강원,,,,,,
GS25,원주하이츠점,편의점,"강원도 원주시 단관공원길 88, (단구동)",37.31628092,127.9568305,강원,,,,,,
GS25,강현해맞이점,편의점,"강원도 양양군 강현면 동해대로 3507, (정암리)",38.14980157,128.6080803,강원,,,,,,
GS25,춘천호반점,편의점,"강원도 춘천시 동내면 거두택지길 80, (거두리, 호반베르디움에코)",37.85495123,127.7603416,강원,,,,,,
GS25,춘천포스코점,편의점,"강원도 춘천시 춘천로296번길 15-1, (후평동)",37.8801428,127.7468346,강원,,,,,,
GS25,인제현리점,편의점,"강원도 인제군 기린면 내린천로 3901, (현리)",37.94599258,128.3153269,강원,,,,,,
GS25,홍천화계점,편의점,"강원도 홍천군 북방면 영서로 2694, (상화계리)",37.70509733,127.8529598,강원,,,,,,
GS25,원주금대리점,편의점,"강원도 원주시 판부면 치악로 1025, (금대리)",37.28466847,127.9969971,강원,,,,,,
GS25,관대빌리지점,편의점,"강원도 강릉시 관솔길 10, (회산동)",37.74048808,128.8689707,강원,,,,,,
GS25,태백장성점,편의점,"강원도 태백시 장성1길 53, (장성동)",37.10113932,129.0069418,강원,,,,,,
GS25,강릉교동부영점,편의점,"강원도 강릉시 가작로 71, (교동, 부영2차)",37.76896617,128.8839459,강원,,,,,,
GS25,낙산해송점,편의점,"강원도 양양군 양양읍 해맞이길 95-21, (조산리)",38.11329615,128.636572,강원,,,,,,
나들가게,베스트할인마트,편의점,"강원도 춘천시 벌말길 106-1, (석사동)",37.86215279,127.7401907,강원,,,,,,
GS25,속초장사점,편의점,"강원도 속초시 중앙로 421, (장사동)",38.22504023,128.58712,강원,,,,,,
GS25,원주청솔6차점,편의점,"강원도 원주시 단관초교길 7, (관설동)",37.31791477,127.9654608,강원,,,,,,
GS25,속초명지점,편의점,"강원도 속초시 미시령로3337번길 20, (교동, 명지미래힐아파트)",38.20682004,128.5712163,강원,,,,,,
GS25,원주만대로점,편의점,"강원도 원주시 만대공원길 24, (무실동)",37.33790233,127.9274528,강원,,,,,,
GS25,화천만능점,편의점,"강원도 화천군 상서면 신월동로 8, (봉오리)",38.19181032,127.5985717,강원,,,,,,
GS25,정동진점,편의점,"강원도 강릉시 강동면 헌화로 975, (정동진리)",37.68556778,129.0396424,강원,,,,,,
스타벅스,춘천석사DT점,프렌차이즈,"강원도 춘천시 후석로 13, (석사동)",37.85666359,127.7393236,강원,,,,,,
GS25,후평본점,편의점,"강원도 춘천시 후만로98번길 12, (후평동)",37.87551226,127.7557168,강원,,,,,,
GS25,원주중앙로점,편의점,"강원도 원주시 중앙로 112, (중앙동)",37.34989004,127.9505919,강원,,,,,,
GS25,원주혁신6호점,편의점,"강원도 원주시 황금로 13, (반곡동)",37.32753415,127.9883857,강원,,,,,,
GS25,춘천삼성점,편의점,"강원도 춘천시 충열로16번길 21-20, (우두동)",37.89858521,127.7298973,강원,,,,,,
GS25,영월역점,편의점,"강원도 영월군 영월읍 영월로 2103, (덕포리)",37.18260697,128.4801499,강원,,,,,,
이디야,거두점,프렌차이즈,"강원도 춘천시 동내면 춘천순환로 134, (거두리)",37.85651579,127.7587569,강원,,,,,,
GS25,장학춘천로점,편의점,"강원도 춘천시 동면 춘천로449번길 20, (장학리)",37.89462809,127.7538117,강원,,,,,,
GS25,동해동회점,편의점,"강원도 동해시 효자남길 34, (동회동)",37.48926318,129.1085395,강원,,,,,,
이디야,원주터미널점,프렌차이즈,"강원도 원주시 서원대로 168, (단계동)",37.34394138,127.9300881,강원,,,,,,
맥도날드,춘천후평DT점,프렌차이즈,"강원도 춘천시 후석로 334, (후평동)",37.88077041,127.7495948,강원,,,,,,
GS25,원주학성점,편의점,"강원도 원주시 남산로 142, (일산동)",37.34925418,127.939621,강원,,,,,,
스타벅스,강원대점,프렌차이즈,"강원도 춘천시 서부대성로 243-1, (효자동)",37.8727596,127.7450866,강원,,,,,,
GS25,원주무실으뜸점,편의점,"강원도 원주시 시청로 96, (무실동)",37.33615479,127.9284702,강원,,,,,,
나들가게,으뜸상회,편의점,"강원도 양양군 강현면 물치1길 28, (물치리)",38.15447232,128.607366,강원,,,,,,
GS25,양양중앙점,편의점,"강원도 양양군 양양읍 양양로 19, (남문리)",38.07772704,128.6261875,강원,,,,,,
GS25,춘천그랜드,편의점,"강원도 춘천시 우석로101번길 20, (석사동, 그랜드아파트)",37.86716203,127.7568355,강원,,,,,,
GS25,원주고점,편의점,"강원도 원주시 개운로 20, (개운동)",37.3388256,127.9535898,강원,,,,,,
GS25,철원동송,편의점,"강원도 철원군 동송읍 이평2로10번길 40, (이평리)",38.20379201,127.2217161,강원,,,,,,
GS25,한라대,편의점,"강원도 원주시 흥업면 한라대길 12-2, (흥업리)",37.30454019,127.9102029,강원,,,,,,
GS25,원주비발디2호,편의점,"강원도 원주시 봉화로 231, (우산동, 한라비발디2차)",37.36438741,127.9297982,강원,,,,,,
GS25,덕우삼거리,편의점,"강원도 정선군 정선읍 칠현로 1309, (덕우리)",37.35586381,128.7185964,강원,,,,,,
GS25,원주혁신7호,편의점,"강원도 원주시 배울로 50, (반곡동, 푸른숨엘에이치3단지)",37.32080106,127.9765394,강원,,,,,,
GS25,수산항,편의점,"강원도 양양군 손양면 수산1길 20-16, (수산리)",38.07710866,128.6744419,강원,,,,,,
GS25,원주혁신1호,편의점,"강원도 원주시 배울로 25, (반곡동)",37.32009787,127.9749713,강원,,,,,,
GS25,강릉교동현대점,편의점,"강원도 강릉시 교동광장로 138-15, (교동, 교동현대2차)",37.7628242,128.8799345,강원,,,,,,
GS25,삼척센트럴점,편의점,"강원도 삼척시 대학로 49-9, (당저동)",37.445481,129.1629414,강원,,,,,,
GS25,삼척남화산,편의점,"강원도 삼척시 원덕읍 삼척로 1224, (임원리)",37.2338273,129.3429,강원,,,,,,
GS25,춘천산수빌점,편의점,"강원도 춘천시 동내면 향군길 23, (신촌리)",37.8478234,127.764478,강원,,,,,,
GS25,낙산터미널점,편의점,"강원도 양양군 강현면 동해대로 3087, (주청리)",38.11762906,128.6283528,강원,,,,,,
이디야,속초해수욕장점,프렌차이즈,"강원도 속초시 해오름로 137, (조양동)",38.18674841,128.604997,강원,,,,,,
GS25,강릉금학점,편의점,"강원도 강릉시 금성로 58, (금학동)",37.75206109,128.8949452,강원,,,,,,
이디야,원주태장점,프렌차이즈,"강원도 원주시 흥양로51번길 11, (태장동)",37.38484501,127.9528952,강원,,,,,,
GS25,진부IC점,편의점,"강원도 평창군 진부면 진부중앙로 192, (상진부리)",37.64724201,128.5646713,강원,,,,,,
탐앤탐스,평창애휴게소강릉방면,프렌차이즈,"강원도 평창군 용평면 경강로 2159-58, (이목정리)",37.60545543,128.4528411,강원,,,,,,
GS25,속초중앙점,편의점,"강원도 속초시 중앙로 161-1, (중앙동)",38.20514988,128.5919042,강원,,,,,,
GS25,강릉터미널점,편의점,"강원도 강릉시 하슬라로 20, (홍제동)",37.75521352,128.879538,강원,,,,,,
이디야,홍천제일점,프렌차이즈,"강원도 홍천군 홍천읍 공작산로 45, (갈마곡리)",37.69184508,127.8977753,강원,,,,,,
GS25,원주만대로점,편의점,"강원도 원주시 만대로 96, (무실동, 원주무실주공5차)",37.33939043,127.9157592,강원,,,,,,
이디야,거두사거리점,프렌차이즈,"강원도 춘천시 동내면 춘천순환로 70, (거두리)",37.85534767,127.7516354,강원,,,,,,
GS25,원주천매점,편의점,"강원도 원주시 천매봉길 80, (단구동)",37.32425814,127.9413335,강원,,,,,,
스타벅스,춘천석사DT점,프렌차이즈,"강원도 춘천시 후석로 13, (석사동)",37.85669951,127.7392666,강원,,,,,,
GS25,춘천요선점,편의점,"강원도 춘천시 서부대성로 48, (요선동)",37.88303882,127.7282943,강원,,,,,,
이디야,속초교동점,프렌차이즈,"강원도 속초시 중앙로 44, (교동)",38.1999047,128.5813921,강원,,,,,,
GS25,원주뉴일산점,편의점,"강원도 원주시 남산로 77, (일산동)",37.34496651,127.9429088,강원,,,,,,
GS25,원주만종점,편의점,"강원도 원주시 호저면 원문로 422, (만종리)",37.36164541,127.9123476,강원,,,,,,
이디야,장학점,프렌차이즈,"강원도 춘천시 동면 춘천로449번길 30, (장학리)",37.89480803,127.753686,강원,,,,,,
GS25,새말IC점,편의점,"강원도 횡성군 우천면 한우로 1406, (우항리)",37.4493404,128.0750899,강원,,,,,,
GS25,장학춘천로점,편의점,"강원도 춘천시 동면 춘천로449번길 30, (장학리)",37.89480803,127.753686,강원,,,,,,
GS25,문막대로점,편의점,"강원도 원주시 문막읍 원문로 1648, (건등리)",37.31809477,127.8297864,강원,,,,,,
GS25,원주무실원룸점,편의점,"강원도 원주시 섬밭들1길 24, (무실동)",37.33317742,127.9226049,강원,,,,,,
버거킹,춘천거두GS점,프렌차이즈,"강원도 춘천시 동내면 춘천순환로 59, (거두리)",37.85583121,127.7502133,강원,,,,,,
GS25,원주상지영서대점,편의점,"강원도 원주시 상지대길 83, (우산동)",37.36911829,127.9298954,강원,,,,,,
GS25,행촌로점,편의점,"강원도 춘천시 행촌로 11, (퇴계동)",37.85884047,127.7219849,강원,,,,,,
이디야,낙원점,프렌차이즈,"강원도 춘천시 중앙로 110, (낙원동)",37.87702461,127.7225645,강원,,,,,,
GS25,흥업LH점,편의점,"강원도 원주시 흥업면 남원로 52, (흥업리, 원주흥업엘에이치천년나무2단지)",37.29923136,127.9211056,강원,,,,,,
스타벅스,춘천후평DT점,프렌차이즈,강원도 춘천시 후석로 318,37.87942105,127.7506225,강원,,,,,,
GS25,속초양우점,편의점,"강원도 속초시 온정로1길 30, (조양동, 속초조양양우내안애아파트)",38.18669314,128.5892892,강원,,,,,,
GS25,원주상지영서대점,편의점,"강원도 원주시 상지대길 84, (우산동)",37.37265969,127.9299598,강원,,,,,,
GS25,혁신점,편의점,"강원도 원주시 혁신로 63, (반곡동)",37.32325294,127.9812665,강원,,,,,,
GS25,춘천효제점,편의점,"강원도 춘천시 효제길23번길 18-9, (효자동)",37.87240192,127.7381201,강원,,,,,,
이디야,춘천제일점,프렌차이즈,"강원도 춘천시 춘주로 89, (온의동)",37.86223229,127.7198469,강원,,,,,,
GS25,정선로타리점,편의점,"강원도 정선군 정선읍 정선로 1241, (북실리)",37.37897107,128.6527497,강원,,,,,,
스타벅스,설악워터피아점,프렌차이즈,"강원도 속초시 미시령로2983번길 88, (장사동)",38.20773471,128.5278673,강원,,,,,,
GS25,춘천영서로점,편의점,"강원도 춘천시 영서로 2496, (근화동)",37.88095872,127.7136259,강원,,,,,,
버거킹,속초디티점,프렌차이즈,"강원도 속초시 동해대로 4059, (조양동)",38.18925398,128.5906683,강원,,,,,,
GS25,춘천미소점,편의점,"강원도 춘천시 근화길15번길 43, (근화동)",37.87231515,127.7199906,강원,,,,,,
GS25,고한원진점,편의점,"강원도 정선군 고한읍 강원남로 6484, (고한리)",37.19642728,128.8722252,강원,,,,,,
GS25,동해발한점,편의점,"강원도 동해시 발한로 152, (발한동)",37.54555843,129.1039295,강원,,,,,,
스타벅스,춘천후평DT점,프렌차이즈,"강원도 춘천시 후석로 316, (후평동)",37.87940284,127.7505316,강원,,,,,,
GS25,속초만리점,편의점,"강원도 속초시 만리공원길 9, (교동)",38.20090868,128.5714213,강원,,,,,,
스타벅스,원주혁신도시,프렌차이즈,"강원도 원주시 혁신로 61, (반곡동)",37.32339705,127.9808264,강원,,,,,,
탐앤탐스,엘리시안강촌점,프렌차이즈,"강원도 춘천시 남산면 북한강변길 688, (백양리)",37.83013203,127.5787958,강원,,,,,,
GS25,철원명품점,편의점,"강원도 철원군 갈말읍 명성로139번길 12, (지포리)",38.14423887,127.3066809,강원,,,,,,
탐앤탐스,강릉대관령휴게소인천방면,프렌차이즈,"강원도 강릉시 성산면 영동고속도로 231, (보광리)",37.7596477,128.8049928,강원,,,,,,
GS25,춘천경강점,편의점,"강원도 춘천시 남산면 서백길 80, (서천리)",37.84106866,127.5514426,강원,,,,,,
GS25,기린점,편의점,"강원도 인제군 기린면 기린로 43, (현리)",37.95608593,128.3179418,강원,,,,,,
이디야,강원도청점,프렌차이즈,"강원도 춘천시 서부대성로 44, (요선동)",37.88317303,127.7278846,강원,,,,,,
GS25,삼척항점,편의점,"강원도 삼척시 새천년도로 84, (정하동)",37.43911399,129.1906526,강원,,,,,,
GS25,고성유진점,편의점,"강원도 고성군 토성면 아야진해변길 3, (청간리)",38.26770538,128.5546995,강원,,,,,,
GS25,춘천포스코점,편의점,"강원도 춘천시 춘천로296번길 15-1, (후평동)",37.88009772,127.7468233,강원,,,,,,
나들가게,현대슈퍼,편의점,"강원도 원주시 남산로 24, (명륜동, 현대1차)",37.34092149,127.944966,강원,,,,,,
GS25,홍천주공점,편의점,"강원도 홍천군 홍천읍 갈마로 14, (갈마곡리)",37.69240445,127.8986023,강원,,,,,,
GS25,단계행복점,편의점,"강원도 원주시 백간길 91, (단계동)",37.35209844,127.9335684,강원,,,,,,
GS25,원주성호점,편의점,"강원도 원주시 치악로 2045, (태장동)",37.36217618,127.9613199,강원,,,,,,
이디야,강릉올림픽선수촌점,프렌차이즈,"강원도 강릉시 선수촌로 79-15, (홍제동)",37.75782572,128.8687081,강원,,,,,,
GS25,단계봉화산점,편의점,"강원도 원주시 봉화서부로 14, (단계동)",37.35643342,127.9200298,강원,,,,,,
GS25,신림황둔점,편의점,"강원도 원주시 신림면 신림황둔로 164, (신림리)",37.24269712,128.088444,강원,,,,,,
이디야,문막동화점,프렌차이즈,"강원도 원주시 문막읍 왕건로 81, (동화리)",37.32669943,127.8291013,강원,,,,,,
GS25,관대사랑점,편의점,"강원도 강릉시 관대길 36, (내곡동)",37.7393755,128.8768545,강원,,,,,,
GS25,강릉대박점,편의점,"강원도 강릉시 강중길 12-1, (입암동)",37.75291162,128.9062694,강원,,,,,,
GS25,원주단관청솔점,편의점,"강원도 원주시 단구로 416, (단구동, 단관청솔4차)",37.32022668,127.9538382,강원,,,,,,
GS25,원주상지점,편의점,"강원도 원주시 북원로2475번길 66, (우산동)",37.36630057,127.9346962,강원,,,,,,
GS25,동해센터점,편의점,"강원도 동해시 대학로 16, (천곡동)",37.52192449,129.1134911,강원,,,,,,
GS25,동해묵호역점,편의점,"강원도 동해시 발한로 184-1, (발한동)",37.54694692,129.1067225,강원,,,,,,
GS25,원주문막공단점,편의점,"강원도 원주시 문막읍 반산1로 22, (반계리)",37.29940209,127.8042007,강원,,,,,,
GS25,영월장릉점,편의점,"강원도 영월군 영월읍 단종로 182, (영흥리)",37.19520155,128.455865,강원,,,,,,
GS25,강릉안목점,편의점,"강원도 강릉시 창해로 10, (견소동)",37.77321564,128.9458829,강원,,,,,,
이디야,중앙점,프렌차이즈,"강원도 원주시 무실로12번길 33, (일산동)",37.35000598,127.9477812,강원,,,,,,
GS25,뉴강릉발전소점,편의점,"강원도 강릉시 강동면 율곡로 1961-1, (안인리)",37.72707149,128.9782614,강원,,,,,,
GS25,교암해변점,편의점,"강원도 고성군 토성면 교암길 42, (교암리)",38.28900475,128.5468712,강원,,,,,,
스타벅스,원주무실점,프렌차이즈,"강원도 원주시 능라동길 73, (무실동)",37.33311008,127.9302448,강원,,,,,,
GS25,태백구문소,편의점,"강원도 태백시 장성로 233, (장성동)",37.10058564,129.0211093,강원,,,,,,
GS25,원주성원점,편의점,"강원도 원주시 무실로 164, (단계동)",37.34165818,127.9403832,강원,,,,,,
GS25,양구동면점,편의점,"강원도 양구군 동면 금강산로 1688, (임당리)",38.20157005,128.0442519,강원,,,,,,
GS25,속초중앙점,편의점,"강원도 속초시 중앙로 161, (중앙동)",38.20510495,128.591881,강원,,,,,,
GS25,동해3주공점,편의점,"강원도 동해시 동굴로 61-21, (천곡동)",37.51979137,129.1103712,강원,,,,,,
GS25,춘천동면점,편의점,"강원도 춘천시 동면 가산로 90-4, (지내리)",37.91192081,127.7822883,강원,,,,,,
GS25,영진로타리점,편의점,"강원도 강릉시 연곡면 연주로 150, (영진리)",37.86965558,128.8381948,강원,,,,,,
GS25,금호설악점,편의점,"강원도 속초시 사당골길 43, (노학동)",38.18386176,128.5488695,강원,,,,,,
GS25,태백철암점,편의점,"강원도 태백시 동태백로 448-4, (철암동)",37.11719262,129.0387958,강원,,,,,,
GS25,무릉계곡점,편의점,"강원도 동해시 삼화로 533, (삼화동)",37.46328178,129.0199624,강원,,,,,,
GS25,태백5주공점,편의점,"강원도 태백시 버들치길 4, (소도동)",37.14003569,128.9784286,강원,,,,,,
GS25,조양사거리점,편의점,"강원도 속초시 동해대로 4147, (조양동)",38.18958428,128.5804425,강원,,,,,,
GS25,삼척사랑점,편의점,"강원도 삼척시 사대길 38, (남양동)",37.44534314,129.1696069,강원,,,,,,
GS25,강릉회산점,편의점,"강원도 강릉시 강변로 72, (회산동)",37.74267766,128.8774721,강원,,,,,,
GS25,춘천메가박스점,편의점,"강원도 춘천시 춘천로17번길 17, (온의동)",37.86642293,127.7202061,강원,,,,,,
GS25,춘천메가시티점,편의점,"강원도 춘천시 춘천로 188, (효자동)",37.87626116,127.7353555,강원,,,,,,
GS25,원주흥업점,편의점,"강원도 원주시 흥업면 남원로 57, (흥업리)",37.30142885,127.9192646,강원,,,,,,
이디야,원주법원점,프렌차이즈,"강원도 원주시 능라동길 48-1, (무실동)",37.33412803,127.9297135,강원,,,,,,
GS25,동해부영점,편의점,"강원도 동해시 청운1길 46, (쇄운동)",37.48585272,129.1080595,강원,,,,,,
GS25,강릉강문점,편의점,"강원도 강릉시 창해로350번길 23-1, (강문동)",37.79612954,128.9172547,강원,,,,,,
GS25,속초금강점,편의점,"강원도 속초시 번영로 42, (청학동, 금강)",38.20399688,128.5828519,강원,,,,,,
이디야,단관점,프렌차이즈,"강원도 원주시 단구로 387, (단구동)",37.32215606,127.956466,강원,,,,,,
GS25,강릉송정주공점,편의점,"강원도 강릉시 하평길 55-1, (포남동)",37.77015422,128.9148112,강원,,,,,,
GS25,강릉포남점,편의점,"강원도 강릉시 하평길 31, (포남동)",37.77065265,128.9121159,강원,,,,,,
GS25,강릉입암점,편의점,"강원도 강릉시 성덕포남로 41, (입암동)",37.75892471,128.9198026,강원,,,,,,
GS25,동해묵호역점,편의점,"강원도 동해시 발한로 186, (발한동)",37.54702747,129.1067803,강원,,,,,,
GS25,춘천애막골점,편의점,"강원도 춘천시 우석로79번길 25, (석사동)",37.86646645,127.7516663,강원,,,,,,
GS25,영진로타리점,편의점,"강원도 강릉시 연곡면 연주로 150, (영진리)",37.86956394,128.8384097,강원,,,,,,
GS25,뉴정선고한점,편의점,"강원도 정선군 고한읍 고한로 151, (고한리)",37.20143261,128.8530873,강원,,,,,,
GS25,속초교동점,편의점,"강원도 속초시 미시령로 3391, (교동)",38.20725199,128.5768489,강원,,,,,,
GS25,단계제일점,편의점,"강원도 원주시 장미공원길 47-1, (단계동)",37.3470863,127.9301529,강원,,,,,,
GS25,춘천로데오점,편의점,"강원도 춘천시 춘천순환로 46, (석사동)",37.85510781,127.7489998,강원,,,,,,
GS25,속초보광병원점,편의점,"강원도 속초시 중앙로 11, (교동)",38.19810702,128.5787063,강원,,,,,,
이디야,옥천점,프렌차이즈,"강원도 강릉시 옥천로 62, (옥천동)",37.75979566,128.8991808,강원,,,,,,
GS25,청초호점,편의점,"강원도 속초시 청초호반로 281, (청학동)",38.20137709,128.5878661,강원,,,,,,
스타벅스,동해DT점,프렌차이즈,"강원도 동해시 중앙로 219, (천곡동)",37.5201742,129.1146869,강원,,,,,,
GS25,하조대터미널점,편의점,"강원도 양양군 현북면 조준길 4, (하광정리)",38.01915701,128.7244325,강원,,,,,,
스타벅스,설악쏘라노점,프렌차이즈,"강원도 속초시 미시령로2983번길 111, (장사동)",38.21058715,128.5286759,강원,,,,,,
GS25,대관령점,편의점,"강원도 평창군 대관령면 올림픽로 191, (횡계리)",37.66600142,128.7098668,강원,,,,,,
GS25,강릉대박점,편의점,"강원도 강릉시 강중길 12, (입암동)",37.75287681,128.9061101,강원,,,,,,
GS25,영월역점,편의점,"강원도 영월군 영월읍 영월로 2103-1, (덕포리)",37.18268771,128.4802405,강원,,,,,,
이디야,강원양양점,프렌차이즈,"강원도 양양군 양양읍 양양로 72, (남문리)",38.07511291,128.6213325,강원,,,,,,
GS25,원주혁신부영점,편의점,"강원도 원주시 양지로 160, (반곡동, 원주혁신도시사랑으로부영8단지)",37.33586023,127.9862853,강원,,,,,,
GS25,화천상서점,편의점,"강원도 화천군 상서면 영서로 7752-1, (산양리)",38.21030555,127.6639808,강원,,,,,,
GS25,강릉옥천점,편의점,"강원도 강릉시 토성로 196, (옥천동)",37.75756763,128.8971451,강원,,,,,,
GS25,초당현대점,편의점,"강원도 강릉시 초당원길 26-1, (초당동)",37.78433012,128.9167569,강원,,,,,,
GS25,주문진교항점,편의점,"강원도 강릉시 주문진읍 연주로 247, (교항리)",37.87504129,128.8296171,강원,,,,,,
GS25,신림황둔점,편의점,"강원도 원주시 신림면 신림황둔로 148, (신림리)",37.24230959,128.0884999,강원,,,,,,
GS25,만종빛나점,편의점,"강원도 원주시 호저면 원문로 637, (만종리)",37.35321896,127.8996698,강원,,,,,,
GS25,고한주공점,편의점,"강원도 정선군 고한읍 고한10길 30-1, (고한리)",37.20034873,128.8571867,강원,,,,,,
GS25,오크밸리점,편의점,"강원도 원주시 지정면 오크밸리2길 22, (판대리)",37.40975481,127.8059133,강원,,,,,,
GS25,강릉IC점,편의점,"강원도 강릉시 경강로 1843, (홍제동)",37.74643811,128.8709692,강원,,,,,,
GS25,원주기업도시점,편의점,"강원도 원주시 지정면 신지정로 177-1, (가곡리)",37.37343651,127.877027,강원,,,,,,
GS25,뉴인제현리점,편의점,"강원도 인제군 기린면 내린천로 3903, (현리)",37.94612733,128.3154754,강원,,,,,,
GS25,횡계올리브점,편의점,"강원도 평창군 대관령면 눈마을길 39, (횡계리)",37.67124705,128.7096107,강원,,,,,,
GS25,동해프라임점,편의점,"강원도 동해시 양지길 20-2, (효가동, 동아더프라임1단지)",37.49936993,129.106936,강원,,,,,,
이디야,강원사내점,프렌차이즈,"강원도 화천군 사내면 사내로 41-2, (사창리)",38.07172462,127.5209858,강원,,,,,,
GS25,고성경동대점,편의점,"강원도 고성군 토성면 봉포4길 30, (봉포리)",38.25228808,128.5607749,강원,,,,,,
이마트24,24삼척시청점,편의점,"강원도 삼척시 교동로 27, (교동)",37.44757376,129.1654488,강원,,,,,,
GS25,원주고점,편의점,"강원도 원주시 개운로 20, (개운동, 원주개운2단지엘에이치)",37.33860923,127.953353,강원,,,,,,
GS25,남애항점,편의점,"강원도 양양군 현남면 매바위길 113, (남애리)",37.94344463,128.7850809,강원,,,,,,
GS25,교동아이원점,편의점,"강원도 강릉시 화부산로40번길 29, (교동, 강릉교동풍림아이원아파트)",37.76076387,128.8891371,강원,,,,,,
GS25,그랑블루점,편의점,"강원도 강릉시 창해로 271, (강문동)",37.78888004,128.9237047,강원,,,,,,
GS25,단계중앙점,편의점,"강원도 원주시 문막읍 왕건로 20, (동화리, 원주문막신원아침도시)",37.32175683,127.8322605,강원,,,,,,
GS25,홍천화랑점,편의점,"강원도 홍천군 홍천읍 무궁화로5길 12, (연봉리)",37.68482014,127.8733402,강원,,,,,,
이디야,경동대점,프렌차이즈,"강원도 고성군 토성면 봉포4길 18, (봉포리)",38.25296825,128.5617285,강원,,,,,,
GS25,강릉현대점,편의점,"강원도 강릉시 범일로 647, (내곡동)",37.74458023,128.8833154,강원,,,,,,
이마트24,24원주시청로점,편의점,"강원도 원주시 시청로 22, (무실동)",37.34020583,127.9221801,강원,,,,,,
이마트24,24속초해오름점,편의점,"강원도 속초시 해오름로 61, (대포동)",38.18054925,128.6085754,강원,,,,,,
이마트24,24강릉관동대점,편의점,"강원도 강릉시 관대길 27, (내곡동)",37.73947694,128.877752,강원,,,,,,
GS25,춘천에이스점,편의점,"강원도 춘천시 삭주로108번길 32, (후평동)",37.88227579,127.7415638,강원,,,,,,
이디야,동해천곡점,프렌차이즈,"강원도 동해시 한섬로 112, (천곡동)",37.52099065,129.1160113,강원,,,,,,
GS25,강릉화부산로점,편의점,"강원도 강릉시 화부산로 6, (교동)",37.75751982,128.8867945,강원,,,,,,
GS25,동해부곡일정점,편의점,"강원도 동해시 해안로 449, (부곡동, 일정골든타워)",37.54091181,129.1094056,강원,,,,,,
GS25,강릉강동점,편의점,"강원도 강릉시 강변로410번길 38, (입암동, 강동4차)",37.75573295,128.9107978,강원,,,,,,
GS25,원주대기숙사점,편의점,"강원도 원주시 흥업면 남원로 150, (흥업리)",37.30517042,127.9221372,강원,,,,,,
GS25,원주시네마점,편의점,"강원도 원주시 능라동길 51, (무실동)",37.33484016,127.9301417,강원,,,,,,
GS25,후평점,편의점,"강원도 춘천시 지석로 67, (석사동, 현진에버빌2차)",37.8521642,127.7419417,강원,,,,,,
GS25,동해삼화점,편의점,"강원도 동해시 삼화1길 37, (이로동)",37.487103,129.068185,강원,,,,,,
탐앤탐스,내린천휴게소서울방면,프렌차이즈,"강원도 인제군 상남면 서울양양고속도로 117, (하남리)",37.91641882,128.2881091,강원,,,,,,
GS25,조양대로점,편의점,"강원도 속초시 청대로204번길 40, (조양동, 부영5차)",38.1882353,128.5799409,강원,,,,,,
GS25,교동하슬라점,편의점,"강원도 강릉시 하슬라로206번길 2, (교동)",37.76797199,128.8759094,강원,,,,,,
GS25,강릉단오공원점,편의점,"강원도 강릉시 단오장길 24, (노암동)",37.74784154,128.8964943,강원,,,,,,
GS25,인제에코캐슬점,편의점,"강원도 인제군 북면 원통로211번길 1, (원통리, 남향에코캐슬)",38.1246325,128.206702,강원,,,,,,
GS25,G춘천푸른강산점,편의점,"강원도 춘천시 춘천로 22, (퇴계동)",37.86670704,127.7222281,강원,,,,,,
이마트24,24강릉금학점,편의점,"강원도 강릉시 금성로 32-5, (금학동)",37.75392116,128.8967946,강원,,,,,,
이마트24,이화점,편의점,"강원도 원주시 이화3길 13, (단계동)",37.33732929,127.9337169,강원,,,,,,
GS25,정선사북점,편의점,"강원도 정선군 고한읍 고한10길 30, (고한리, 고한주공아파트)",37.19927079,128.8579631,강원,,,,,,
이디야,삼척교동점,프렌차이즈,"강원도 삼척시 청석로 59, (교동)",37.44819533,129.1754716,강원,,,,,,
GS25,교동아이원점,편의점,"강원도 강릉시 화부산로111번길 24, (교동, 강릉교동롯데캐슬2단지)",37.76677795,128.8897652,강원,,,,,,
GS25,원주동보점,편의점,"강원도 원주시 시청로 263, (명륜동)",37.32374288,127.9381407,강원,,,,,,
GS25,강원평창점,편의점,"강원도 평창군 평창읍 송학로 40, (하리)",37.36798171,128.3929613,강원,,,,,,
이디야,춘천애막골점,프렌차이즈,"강원도 춘천시 후석로 110, (석사동)",37.86300695,127.7476433,강원,,,,,,
GS25,영월동강점,편의점,"강원도 영월군 영월읍 영월로 3206-2, (연하리)",37.19057164,128.5680448,강원,,,,,,
이마트24,원주태장현충로점,편의점,"강원도 원주시 현충로58번길 28, (태장동)",37.36129176,127.9574369,강원,,,,,,
이마트24,원주단관초교점,편의점,"강원도 원주시 단관초교길 26-10, (관설동)",37.3167787,127.9632612,강원,,,,,,
이마트24,주문진소돌점,편의점,"강원도 강릉시 주문진읍 해안로 1973, (주문리)",37.90552057,128.8285832,강원,,,,,,
GS25,강원도청점,편의점,"강원도 춘천시 중앙로 1, (봉의동)",37.88542373,127.7309913,강원,,,,,,
이디야,속초장사항점,프렌차이즈,"강원도 속초시 장사항해안길 51, (장사동)",38.22608136,128.5879164,강원,,,,,,
나들가게,일출봉마트,편의점,"강원도 속초시 조양로22번길 6, (조양동)",38.18683261,128.5991188,강원,,,,,,
이마트24,원주무실초교점,편의점,"강원도 원주시 섬밭들1길 8, (무실동)",37.3341227,127.9212497,강원,,,,,,
이마트24,원주시청로점,편의점,"강원도 원주시 시청로 22, (무실동)",37.34020583,127.9221801,강원,,,,,,
이마트24,원주치악로점,편의점,"강원도 원주시 치악로 1522-1, (단구동)",37.32029382,127.9658095,강원,,,,,,
이마트24,원주휴게소춘천방면,편의점,"강원도 원주시 호저면 마근거리길 110, (옥산리)",37.43468371,127.9317892,강원,,,,,,
이디야,속초대포항점,프렌차이즈,"강원도 속초시 동해대로 3741, (대포동)",38.16946414,128.6056986,강원,,,,,,
이디야,원주반곡동점,프렌차이즈,"강원도 원주시 오리현길 16-9, (반곡동)",37.33866811,127.9677761,강원,,,,,,
이마트24,원주혁신도시점,편의점,"강원도 원주시 세계로 1, (반곡동)",37.32438919,127.9877204,강원,,,,,,
GS25,묵호중앙점,편의점,"강원도 동해시 중앙시장길 9, (발한동)",37.55072161,129.1087136,강원,,,,,,
나들가게,대명마트,편의점,"강원도 속초시 청대로232번길 15-19, (조양동, 대명타워조양아파트)",38.18878606,128.5742033,강원,,,,,,
GS25,대진항점,편의점,"강원도 고성군 현내면 한나루로 122, (대진리)",38.49886987,128.4253499,강원,,,,,,
이마트24,원주혁신점,편의점,"강원도 원주시 건강로 6, (반곡동)",37.32640751,127.9861178,강원,,,,,,
이마트24,강촌힐스점,편의점,"강원도 춘천시 서면 경춘로 584, (안보리)",37.83784066,127.5751163,강원,,,,,,
이마트24,강릉대관령휴게소인천방면,편의점,"강원도 강릉시 성산면 영동고속도로 231, (보광리)",37.7596477,128.8049928,강원,,,,,,
나들가게,신선마트,편의점,"강원도 고성군 현내면 한나루로 156, (대진리)",38.50149406,128.424666,강원,,,,,,
GS25,원주케이티,편의점,"강원도 원주시 동부순환로 2, (단구동)",37.31762744,127.9691729,강원,,,,,,
GS25,극동점,편의점,"강원도 춘천시 후석로 459, (후평동, 극동늘푸른아파트)",37.8894733,127.7407883,강원,,,,,,
이마트24,강릉회산점,편의점,"강원도 강릉시 회산로 348-31, (회산동)",37.7390525,128.866923,강원,,,,,,
GS25,입암대로점,편의점,"강원도 강릉시 월대산로 59, (입암동)",37.76017103,128.9171169,강원,,,,,,
GS25,한림대학사점1,편의점,"강원도 춘천시 한림대학길 1, (옥천동)",37.88543267,127.7349362,강원,,,,,,
GS25,삼척근덕점,편의점,"강원도 삼척시 근덕면 삼척로 3684, (교가리)",37.3830531,129.2256847,강원,,,,,,
GS25,원주무실타운점,편의점,"강원도 원주시 솔우물1길 1-2, (무실동)",37.32812571,127.9282183,강원,,,,,,
나들가게,성호마트,편의점,"강원도 원주시 현충로58번길 71-3, (태장동)",37.36435675,127.9609575,강원,,,,,,
나들가게,오복할인마트,편의점,"강원도 속초시 밤골3길 38, (교동)",38.20251872,128.5663987,강원,,,,,,
GS25,동해해오름점,편의점,"강원도 동해시 발한로 384, (발한동)",37.56224211,129.1014138,강원,,,,,,
GS25,태백가온점자판기,편의점,"강원도 태백시 서황지로 80, (황지동)",37.17672423,128.9844082,강원,,,,,,
버거킹,오션월드,프렌차이즈,"강원도 홍천군 서면 한치골길 264, (팔봉리)",37.64818406,127.6858397,강원,,,,,,
이마트24,대관령에이엠점,편의점,강원도 평창군 대관령면 송천2길 7-5,37.67098241,128.71166,강원,,,,,,
이마트24,속초번영로점,편의점,"강원도 속초시 번영로43번길 8, (청학동)",38.2048195,128.582299,강원,,,,,,
이마트24,홍천석화로점,편의점,"강원도 홍천군 홍천읍 석화로 111, (희망리)",37.69653333,127.8907835,강원,,,,,,
이마트24,평창월정사점,편의점,"강원도 평창군 진부면 오대산로 176, (동산리)",37.71885714,128.6029413,강원,,,,,,
나들가게,주원마트,편의점,"강원도 양양군 양양읍 양양로 22, (남문리)",38.07777512,128.625618,강원,,,,,,
GS25,대관령치항교점,편의점,"강원도 평창군 대관령면 차항길 4, (차항리)",37.68736168,128.6938001,강원,,,,,,
이마트24,춘천양우아파트점,편의점,"강원도 춘천시 공지로317번길 11, (효자동, 양우)",37.86722084,127.7300687,강원,,,,,,
이마트24,춘천봄내점,편의점,"강원도 춘천시 공지로218번길 6, (효자동, 봄내원개나리빌라)",37.86305329,127.7399489,강원,,,,,,
이마트24,망상해변점,편의점,"강원도 동해시 동해대로 6270-16, (망상동)",37.59240581,129.0910557,강원,,,,,,
이마트24,춘천성심로점,편의점,"강원도 춘천시 성심로 92, (효자동)",37.8762153,127.7431309,강원,,,,,,
GS25,동해현대점,편의점,"강원도 동해시 한섬로 28-4, (천곡동)",37.5194849,129.106543,강원,,,,,,
이디야,강릉내곡점,프렌차이즈,"강원도 강릉시 범일로 601, (내곡동)",37.74127151,128.879963,강원,,,,,,
이마트24,삼척시청점,편의점,"강원도 삼척시 교동로 27, (교동)",37.44757376,129.1654488,강원,,,,,,
이마트24,트라이앵글레지던스점,편의점,"강원도 평창군 대관령면 대관령마루길 10, (횡계리)",37.66815343,128.7116103,강원,,,,,,
이마트24,강릉금학점,편의점,"강원도 강릉시 금성로 32-5, (금학동)",37.75392116,128.8967946,강원,,,,,,
이마트24,강릉입암주공점,편의점,"강원도 강릉시 성덕포남로 37, (입암동)",37.75867006,128.9201059,강원,,,,,,
이마트24,횡성교항로점,편의점,"강원도 횡성군 횡성읍 교항로 17-1, (교항리)",37.48572193,127.9814634,강원,,,,,,
이마트24,삼척교동점,편의점,"강원도 삼척시 교동로1길 9, (교동)",37.45071237,129.1724369,강원,,,,,,
이마트24,동해광희점,편의점,"강원도 동해시 청운로 84, (쇄운동)",37.48760318,129.1029856,강원,,,,,,
이마트24,강릉포남대박점,편의점,"강원도 강릉시 경강로 2211, (포남동)",37.76207237,128.9054392,강원,,,,,,
GS25,해오름점,편의점,"강원도 속초시 새마을길 56, (조양동)",38.1864266,128.6045034,강원,,,,,,
이디야,춘천장학점,프렌차이즈,"강원도 춘천시 동면 춘천로449번길 11, (장학리)",37.89362796,127.753815,강원,,,,,,
이디야,춘천점,프렌차이즈,"강원도 춘천시 시청길10번길 4-1, (조양동)",37.8800751,127.728578,강원,,,,,,
이마트24,원주무실점,편의점,"강원도 원주시 만대공원길 8-11, (무실동)",37.33743483,127.9292364,강원,,,,,,
GS25,오크밸리스키점,편의점,"강원도 원주시 지정면 오크밸리2길 58, (월송리)",37.40785843,127.8089455,강원,,,,,,
이마트24,양양현남점,편의점,"강원도 양양군 현남면 동해대로 56, (지경리)",37.92018169,128.8036344,강원,,,,,,
나들가게,우산동풍물점,편의점,"강원도 원주시 북원로2425번길 17, (우산동)",37.36185139,127.9390013,강원,,,,,,
이디야,춘천공지천점,프렌차이즈,"강원도 춘천시 수변공원길 11, (삼천동)",37.87225727,127.7073057,강원,,,,,,
이마트24,속초장사항점,편의점,"강원도 속초시 장사항해안길 35, (장사동)",38.22482564,128.5885916,강원,,,,,,
GS25,원주귀래점,편의점,"강원도 원주시 귀래면 운남길 22, (운남리)",37.17038723,127.8869059,강원,,,,,,
GS25,원주태장소일점,편의점,"강원도 원주시 치악로 2195, (태장동)",37.3726401,127.9681907,강원,,,,,,
GS25,강릉도깨비점,편의점,"강원도 강릉시 주문진읍 해안로 1613, (교항리)",37.87984542,128.8331949,강원,,,,,,
GS25,동해어달항점,편의점,"강원도 동해시 일출로 215, (어달동)",37.5612969,129.1195212,강원,,,,,,
이디야,강원평창점,프렌차이즈,"강원도 평창군 평창읍 평창중앙로 55, (하리)",37.36835223,128.3953455,강원,,,,,,
이마트24,주문진교항점,편의점,"강원도 강릉시 주문진읍 신리천로 91, (교항리)",37.88219893,128.8213874,강원,,,,,,
이마트24,강릉의료원점,편의점,"강원도 강릉시 경강로 2007, (남문동)",37.74973841,128.8887328,강원,,,,,,
GS25,속초선사로점,편의점,"강원도 속초시 선사로5길 29, (조양동)",38.18899242,128.588931,강원,,,,,,
이디야,속초조양동점,프렌차이즈,"강원도 속초시 조양로 213, (조양동)",38.18905153,128.577025,강원,,,,,,
이디야,춘천의암호점,프렌차이즈,"강원도 춘천시 서면 박사로 734, (현암리)",37.88448536,127.683372,강원,,,,,,
이마트24,삼척월계점,편의점,"강원도 삼척시 당저길 37, (당저동)",37.44646521,129.1618152,강원,,,,,,
GS25,간현유원지점,편의점,"강원도 원주시 지정면 소금산길 20, (간현리)",37.36476816,127.833147,강원,,,,,,
GS25,인구해변점,편의점,"강원도 양양군 현남면 인구길 28-35, (인구리)",37.96973519,128.7618696,강원,,,,,,
이마트24,고성대로점,편의점,"강원도 고성군 토성면 고성대로 51, (원암리)",38.20807403,128.5081385,강원,,,,,,
이마트24,관동대원룸점,편의점,"강원도 강릉시 범일로579번길 29-13, (내곡동)",37.73752866,128.879238,강원,,,,,,
이마트24,속초중앙로점,편의점,"강원도 속초시 중앙로 146-1, (중앙동)",38.20382741,128.5915167,강원,,,,,,
이마트24,속초동명점,편의점,"강원도 속초시 장안로 27-1, (동명동)",38.21113859,128.5924438,강원,,,,,,
이마트24,강릉축구공원점,편의점,"강원도 강릉시 남부로212번길 13-6, (노암동, 라온힐스)",37.74240366,128.9041897,강원,,,,,,
이디야,세인트존스경포호텔점,프렌차이즈,"강원도 강릉시 창해로 307, (강문동)",37.79129864,128.9209077,강원,,,,,,
이마트24,태백로데오점,편의점,"강원도 태백시 황지로 192, (황지동)",37.17505937,128.9895554,강원,,,,,,
이마트24,정선덕성점,편의점,"강원도 정선군 사북읍 사북중앙로 9, (사북리)",37.22699942,128.8156473,강원,,,,,,
이마트24,태백황지점,편의점,"강원도 태백시 번영로 343, (황지동)",37.1719398,128.9908434,강원,,,,,,
이마트24,동해삼성점,편의점,"강원도 동해시 대학로 28, (천곡동)",37.52290292,129.1129287,강원,,,,,,
나들가게,약수홈마트,편의점,"강원도 고성군 죽왕면 문암항길 71-1, (문암진리)",38.30307694,128.547034,강원,,,,,,
나들가게,진주마트,편의점,"강원도 태백시 연지로 9, (황지동)",37.17497876,128.988417,강원,,,,,,
이마트24,원주단구원룸점,편의점,"강원도 원주시 천매봉길 36-9, (단구동)",37.32322258,127.9428124,강원,,,,,,
이디야,엑스포점,프렌차이즈,"강원도 속초시 엑스포로 45, (조양동)",38.19102365,128.5863217,강원,,,,,,
GS25,삼척용화점,편의점,"강원도 삼척시 근덕면 삼척로 2242, (용화리)",37.28830874,129.2998181,강원,,,,,,
나들가게,이조은마트,편의점,"강원도 원주시 무실본동길 20, (무실동)",37.33685976,127.9320358,강원,,,,,,
스타벅스,원주명륜DT점,프렌차이즈,"강원도 원주시 남원로 588, (명륜동)",37.33599457,127.9498335,강원,,,,,,
GS25,춘천새아침점,편의점,"강원도 춘천시 남춘천새길 11, (퇴계동, 휴먼시아남춘천1단지)",37.86229963,127.7333257,강원,,,,,,
GS25,정선민둥산점,편의점,"강원도 정선군 남면 무릉1로 89, (무릉리)",37.24601057,128.7771115,강원,,,,,,
나들가게,갤러리마트,편의점,"강원도 원주시 이화6길 42, (단계동)",37.34149127,127.9316704,강원,,,,,,
이마트24,동해센트로빌점,편의점,"강원도 동해시 한섬로 72, (천곡동)",37.51993048,129.1118665,강원,,,,,,
이마트24,동해무릉계곡점,편의점,"강원도 동해시 삼화로 510, (삼화동)",37.46389908,129.0225594,강원,,,,,,
GS25,원주금대점,편의점,"강원도 원주시 판부면 치악로 1002, (금대리)",37.28363222,127.9993091,강원,,,,,,
GS25,춘천CGV점,편의점,"강원도 춘천시 지석로 80, (퇴계동)",37.85051924,127.7437428,강원,,,,,,
GS25,사천비치점,편의점,"강원도 강릉시 사천면 진리해변길 73, (사천진리)",37.83862706,128.8762557,강원,,,,,,
GS25,인제원통중앙점,편의점,"강원도 인제군 북면 원통로174번길 10, (원통리)",38.12188884,128.204208,강원,,,,,,
GS25,평창데이즈힐점,편의점,"강원도 평창군 대관령면 솔봉로 278-84, (용산리, 평창스카이테라하우스)",37.66128853,128.6619009,강원,,,,,,
GS25,철원화지리점,편의점,"강원도 철원군 철원읍 금학로 295, (화지리)",38.2142351,127.2137483,강원,,,,,,
GS25,원주롯데캐슬점,편의점,"강원도 원주시 지정면 가곡로 50, (가곡리, 원주롯데캐슬더퍼스트)",37.37869327,127.8802479,강원,,,,,,
GS25,원주기업캐슬점,편의점,"강원도 원주시 지정면 가곡로 70, (가곡리, 원주롯데캐슬더퍼스트2차)",37.38002374,127.8771631,강원,,,,,,
GS25,교동광장점,편의점,"강원도 강릉시 솔올로5번길 43, (교동)",37.76410391,128.8762724,강원,,,,,,
GS25,문막세오름점,편의점,"강원도 원주시 문막읍 세오름길 6, (동화리)",37.33069231,127.829758,강원,,,,,,
GS25,삼척유성점,편의점,"강원도 삼척시 동해대로 4044-13, (정상동, 유성)",37.44192786,129.1787073,강원,,,,,,
GS25,동해항점,편의점,"강원도 동해시 대동로 253, (송정동)",37.49244368,129.1238188,강원,,,,,,
GS25,고성제일점,편의점,"강원도 고성군 현내면 금강산로 126, (초도리)",38.48769883,128.4325974,강원,,,,,,
이마트24,상지대창조관점,편의점,"강원도 원주시 상지대길 83, (우산동)",37.36911829,127.9298954,강원,,,,,,
이마트24,춘천백령마을점,편의점,"강원도 춘천시 공지로252번길 26, (효자동)",37.86558138,127.7382351,강원,,,,,,
이마트24,강릉일송점,편의점,"강원도 강릉시 하평3길 37, (포남동, 일송아파트)",37.77176918,128.914536,강원,,,,,,
이마트24,철원고석정점,편의점,"강원도 철원군 동송읍 태봉로 1824, (장흥리)",38.18854121,127.2888754,강원,,,,,,
이마트24,강릉한신점,편의점,"강원도 강릉시 경강로2539번길 8, (견소동, 견소동송정한신아파트)",37.77390723,128.9393988,강원,,,,,,
GS25,원주인동점,편의점,"강원도 원주시 중앙로 38-1, (인동)",37.34691761,127.9536413,강원,,,,,,
이마트24,철원요양병원점,편의점,"강원도 철원군 동송읍 금학로157번길 23-16, (이평리)",38.20071086,127.2203788,강원,,,,,,
이마트24,동해청해점,편의점,"강원도 동해시 동굴로 125, (천곡동)",37.5186494,129.1177638,강원,,,,,,
이마트24,원주금강점,편의점,"강원도 원주시 행구로 140, (행구동, 행구금강아미움아파트)",37.34086754,127.9705064,강원,,,,,,
이마트24,문막스타점,편의점,"강원도 원주시 문막읍 건등로 55, (건등리)",37.31456755,127.821062,강원,,,,,,
이마트24,동해한양점,편의점,"강원도 동해시 천곡로 15, (천곡동, 한양아파트)",37.52714397,129.1065204,강원,,,,,,
이마트24,주문진도깨비길점,편의점,"강원도 강릉시 주문진읍 신리길 21, (교항리)",37.88243179,128.8280175,강원,,,,,,
이마트24,R고성파인리즈리조트점,편의점,"강원도 고성군 토성면 잼버리동로 267, (인흥리)",38.2432339,128.5375602,강원,,,,,,
이마트24,강릉원주대점,편의점,"강원도 강릉시 경포로15번길 6-1, (지변동)",37.77259078,128.8763725,강원,,,,,,
이마트24,원주한라대점,편의점,"강원도 원주시 흥업면 사제로 73, (흥업리)",37.30489294,127.911951,강원,,,,,,
이마트24,강릉남항진점,편의점,"강원도 강릉시 공항길127번길 66, (남항진동)",37.76406037,128.9538245,강원,,,,,,
GS25,동해아이파크점,편의점,"강원도 동해시 배골길 32-4, (이도동, 동해아이파크)",37.47700438,129.1090255,강원,,,,,,
이마트24,춘천호텔공지천점,편의점,"강원도 춘천시 수변공원길 11, (삼천동)",37.87267256,127.7076336,강원,,,,,,
GS25,문막코아루점,편의점,"강원도 원주시 문막읍 원문로 1700-1, (건등리)",37.31506034,127.8252014,강원,,,,,,
GS25,문막중앙점,편의점,"강원도 원주시 문막읍 원문로 1595, (건등리)",37.32045103,127.8328388,강원,,,,,,
이마트24,춘천약사명동점,편의점,"강원도 춘천시 망대길 5, (중앙로3가)",37.87695571,127.7239175,강원,,,,,,
이마트24,춘천퇴계무릉점,편의점,"강원도 춘천시 남춘로36번길 62, (퇴계동)",37.86064901,127.7365592,강원,,,,,,
이마트24,춘천근화점,편의점,"강원도 춘천시 공지로451번길 8, (근화동)",37.87342535,127.717031,강원,,,,,,
GS25,무실코아루점,편의점,"강원도 원주시 시청로 89-16, (무실동)",37.33748022,127.9298006,강원,,,,,,
GS25,속초장사항점,편의점,강원도 속초시 중앙로 390,38.22294689,128.5895358,강원,,,,,,
GS25,강원대기숙사점,편의점,"강원도 춘천시 공지로 188-77, (효자동)",37.8656798,127.7461453,강원,,,,,,
GS25,GS25홍천현대점,편의점,"강원도 홍천군 홍천읍 연봉중앙로 16, (연봉리)",37.68129793,127.8742192,강원,,,,,,
GS25,춘천럭키점,편의점,"강원도 춘천시 벌말길 106-1, (석사동)",37.86215279,127.7401907,강원,,,,,,
GS25,춘천부영점,편의점,"강원도 춘천시 우석로101번길 83, (석사동, 석사부영아파트)",37.8690414,127.7550107,강원,,,,,,
GS25,춘천우두LH점,편의점,"강원도 춘천시 우두로 130, (우두동, 춘천우두엘에이치천년나무1단지)",37.91151333,127.7371627,강원,,,,,,
GS25,원주라온점,편의점,"강원도 원주시 지정면 가곡로 132, (가곡리, 원주기업도시라온프라이빗)",37.38348118,127.8744811,강원,,,,,,
이마트24,춘천시청점,편의점,"강원도 춘천시 시청길 32, (조양동)",37.881045,127.7311095,강원,,,,,,
이마트24,정선사북점,편의점,"강원도 정선군 사북읍 사북중앙로 62, (사북리)",37.22732968,128.8213191,강원,,,,,,
이마트24,춘천봉의고점,편의점,"강원도 춘천시 후석로250번길 21, (후평동)",37.87398775,127.7548693,강원,,,,,,
이마트24,R춘천강남하이엔드점,편의점,"강원도 춘천시 춘천로17번길 21, (온의동)",37.86679955,127.7194432,강원,,,,,,
이마트24,태백중앙하이츠점,편의점,"강원도 태백시 대학길 82, (황지동)",37.16074092,128.9776033,강원,,,,,,
이마트24,춘천원창고개길점,편의점,"강원도 춘천시 동내면 원창고개길 274-2, (학곡리)",37.83272797,127.7629355,강원,,,,,,
이마트24,춘천MBC점,편의점,"강원도 춘천시 수변공원길 54, (삼천동)",37.87524854,127.703645,강원,,,,,,
이마트24,원주흥업두산점,편의점,"강원도 원주시 흥업면 북원로 1600, (흥업리, 남원주두산위브아파트)",37.29093834,127.9171329,강원,,,,,,
이마트24,상지대점,편의점,"강원도 원주시 상지대길 84, (우산동)",37.37265969,127.9299598,강원,,,,,,
이마트24,원주기업도시1호점,편의점,"강원도 원주시 지정면 가곡로 50, (가곡리, 원주롯데캐슬더퍼스트)",37.37869327,127.8802479,강원,,,,,,
이마트24,횡성북천민지점,편의점,"강원도 횡성군 횡성읍 북천서로 7, (북천리)",37.49306688,127.9904296,강원,,,,,,
이마트24,원주매머드시티점,편의점,"강원도 원주시 시청로 11-1, (무실동)",37.3414405,127.9223932,강원,,,,,,
이마트24,속초부영점,편의점,"강원도 속초시 청대로204번길 40, (조양동, 부영5차)",38.18886219,128.5825258,강원,,,,,,
GS25,양양설해원점,편의점,"강원도 양양군 손양면 공항로 230, (동호리)",38.05550723,128.6642048,강원,,,,,,
GS25,속초아뜨리움점,편의점,"강원도 속초시 조양로 40, (조양동, 속초조양동이에스아뜨리움)",38.18782544,128.5970037,강원,,,,,,
GS25,등대해변점,편의점,"강원도 속초시 영랑해안길 179, (영랑동)",38.21720013,128.594617,강원,,,,,,
GS25,오션투유리조트점,편의점,"강원도 고성군 죽왕면 삼포해변길 9, (삼포리)",38.31711539,128.5310037,강원,,,,,,
이마트24,원주가현점,편의점,"강원도 원주시 가현로 39, (가현동)",37.38604814,127.9430019,강원,,,,,,
이마트24,속초성호사랑점,편의점,"강원도 속초시 청대로 22-6, (조양동)",38.18427884,128.598139,강원,,,,,,
이마트24,원주봉화푸르지오점,편의점,"강원도 원주시 바우골길 11-3, (단계동)",37.35479248,127.918677,강원,,,,,,
이마트24,원주봉화부영점,편의점,"강원도 원주시 봉화서부로 28-2, (단계동)",37.3570992,127.9184939,강원,,,,,,
이마트24,삼척석미점,편의점,"강원도 삼척시 청석로 78, (정상동, 석미한아름아파트)",37.4466699,129.1775498,강원,,,,,,
이마트24,원주단계이룸점,편의점,"강원도 원주시 북원로 2235-12, (단계동)",37.34584315,127.9308087,강원,,,,,,
이마트24,원주무실중앙점,편의점,"강원도 원주시 능라동길 74, (무실동)",37.33335319,127.9299173,강원,,,,,,
이마트24,씨크루즈호텔속초점,편의점,"강원도 속초시 청초호반로 273, (청학동)",38.20127314,128.5870318,강원,,,,,,
이마트24,원주중앙하이츠점,편의점,"강원도 원주시 치악고교길 24-11, (관설동)",37.31476804,127.9596632,강원,,,,,,
이마트24,문막반계리점,편의점,"강원도 원주시 문막읍 원문로 2139, (반계리)",37.29873238,127.7971413,강원,,,,,,
GS25,속초시티프라디움점,편의점,"강원도 속초시 미시령로 3307, (교동, 속초교동시티프라디움)",38.20523713,128.5687833,강원,,,,,,
이마트24,강릉중기점,편의점,"강원도 강릉시 중기1길 1, (옥천동)",37.76311816,128.9030118,강원,,,,,,
이마트24,강릉교동주공점,편의점,"강원도 강릉시 가작로 85-1, (교동)",37.76882965,128.8853291,강원,,,,,,
GS25,원주흥양리점,편의점,"강원도 원주시 소초면 치악로 2334, (흥양리)",37.38335606,127.9757182,강원,,,,,,
이마트24,삼척중앙점,편의점,"강원도 삼척시 중앙로 236, (남양동)",37.44441026,129.1682702,강원,,,,,,
이마트24,강릉아모리움점,편의점,"강원도 강릉시 경강로2326번길 10, (포남동)",37.76753385,128.9157664,강원,,,,,,
이마트24,속초영랑해안길점,편의점,"강원도 속초시 영랑해안1길 12, (영랑동)",38.21449342,128.5971415,강원,,,,,,
이마트24,강릉해피점,편의점,"강원도 강릉시 경강로 2101, (임당동)",37.75531094,128.896505,강원,,,,,,
이마트24,강릉동부점,편의점,"강원도 강릉시 옥가로50번길 2, (옥천동)",37.76065085,128.9004622,강원,,,,,,
이마트24,춘천더퍼스트점,편의점,"강원도 춘천시 지석로 89, (석사동)",37.85101806,127.745241,강원,,,,,,
이마트24,춘천호텔벤틀리점,편의점,"강원도 춘천시 춘천로170번길 17, (효자동)",37.87535773,127.7342903,강원,,,,,,
GS25,포남제일점,편의점,"강원도 강릉시 남강초교2길 40, (포남동)",37.76936677,128.9198979,강원,,,,,,
이디야,강릉역점,프렌차이즈,"강원도 강릉시 용지로 174-6, (교동)",37.76386919,128.9002402,강원,,,,,,
GS25,양양물치점,편의점,"강원도 양양군 강현면 동해대로 3559, (물치리)",38.15461441,128.6077665,강원,,,,,,
GS25,강릉역점,편의점,"강원도 강릉시 용지로 167, (교동)",37.76305185,128.8999012,강원,,,,,,
이디야,태백중앙점,프렌차이즈,"강원도 태백시 번영로 349, (황지동)",37.17197085,128.9914406,강원,,,,,,
버거킹,원주명륜오일뱅크점,프렌차이즈,"강원도 원주시 남원로 505, (명륜동)",37.32972076,127.9452224,강원,,,,,,
GS25,속초오복점,편의점,"강원도 속초시 청대로 22-8, (조양동)",38.18463021,128.5981419,강원,,,,,,
GS25,기업도시중앙,편의점,"강원도 원주시 지정면 신지정로 153-48, (가곡리)",37.37498131,127.8808409,강원,,,,,,
GS25,강릉내곡점,편의점,"강원도 강릉시 남산초교길 33, (내곡동)",37.74450517,128.8920856,강원,,,,,,
GS25,홍천대명기숙사,편의점,"강원도 홍천군 서면 한치골길592번길 9, (팔봉리)",37.66371243,127.6938673,강원,,,,,,
GS25,원주푸른점,편의점,"강원도 원주시 혁신로 224-1, (반곡동)",37.32882315,127.9936439,강원,,,,,,
GS25,원주기업반도점,편의점,"강원도 원주시 지정면 조엄로 397, (가곡리)",37.37520357,127.8694477,강원,,,,,,
GS25,춘천낭만점,편의점,"강원도 춘천시 동내면 순환대로 664, (사암리)",37.84108531,127.7653061,강원,,,,,,
이디야,춘천사농동점,프렌차이즈,"강원도 춘천시 사우로 38, (사농동)",37.90669177,127.7287419,강원,,,,,,