브랜드명,지점명,업체유형,도로명주소,위도,경도,지역,ID,연락처,주차시설,평점,판매자ID,판매상품목록
나들가게,돔베낭길농수산편의점,편의점,"제주특별자치도 서귀포시 태평로92번길 30, (호근동)",33.24180836,126.5315872,제주,,,,,,
나들가게,와글와글슈퍼,편의점,"제주특별자치도 제주시 연수로 13, (일도이동)",33.50348214,126.5465329,제주,,,,,,
나들가게,도두점,편의점,"제주특별자치도 제주시 도공로 28, (도두일동)",33.50381449,126.4656853,제주,,,,,,
나들가게,한사랑마트,편의점,"제주특별자치도 제주시 애월읍 광성로 54, (고성리)",33.45774453,126.4134064,제주,,,,,,
나들가게,은경마트,편의점,"제주특별자치도 제주시 진남로 33, (화북일동)",33.52323086,126.5638989,제주,,,,,,
나들가게,하나마트,편의점,"제주특별자치도 제주시 산천단동3길 25, (아라일동)",33.450023,126.5585031,제주,,,,,,
나들가게,우림마트,편의점,"제주특별자치도 제주시 연동12길 37, (연동)",33.48246108,126.49325,제주,,,,,,
나들가게,동아마트,편의점,"제주특별자치도 제주시 동광로19길 47, (일도이동)",33.51238883,126.5403244,제주,,,,,,
나들가게,국일점,편의점,"제주특별자치도 제주시 원노형6길 8, (노형동)",33.48529015,126.4827536,제주,,,,,,
나들가게,365편의점,편의점,"제주특별자치도 제주시 노형로 203, (노형동)",33.47301002,126.4629366,제주,,,,,,
나들가게,사계코사마트,편의점,"제주특별자치도 서귀포시 안덕면 산방로 363-1, (사계리)",33.23133109,126.2980851,제주,,,,,,
나들가게,미니마트,편의점,"제주특별자치도 제주시 동문로9길 7, (건입동)",33.51370179,126.5301314,제주,,,,,,
나들가게,영락슈퍼,편의점,"제주특별자치도 제주시 고마로9길 25, (일도이동)",33.51093578,126.5417265,제주,,,,,,
나들가게,삼일슈퍼,편의점,"제주특별자치도 제주시 선사로8길 37, (삼양일동)",33.52700026,126.5890691,제주,,,,,,
나들가게,기영상회,편의점,"제주특별자치도 제주시 한림읍 한림로 345, (협재리)",33.39441999,126.2409807,제주,,,,,,
나들가게,원당편의점,편의점,"제주특별자치도 제주시 원당로 41, (삼양일동)",33.52483429,126.5904606,제주,,,,,,
나들가게,정다운마트,편의점,"제주특별자치도 제주시 남중서1길 28, (삼도이동)",33.50642304,126.523808,제주,,,,,,
맥도날드,서귀포DT점,프렌차이즈,"제주특별자치도 서귀포시 일주동로 8665, (서귀동)",33.25324447,126.5627732,제주,,,,,,
맥도날드,제주노형점,프렌차이즈,"제주특별자치도 제주시 노연로 7, (노형동)",33.48632341,126.4809926,제주,,,,,,
맥도날드,제주시청디티점,프렌차이즈,"제주특별자치도 제주시 중앙로 277, (이도이동)",33.49567091,126.5332232,제주,,,,,,
맥도날드,일도DT점,프렌차이즈,"제주특별자치도 제주시 동광로 134, (일도이동)",33.50754743,126.5410945,제주,,,,,,
맥도날드,제주공항DT점,프렌차이즈,"제주특별자치도 제주시 도령로 159, (용담이동)",33.49505739,126.4926229,제주,,,,,,
맥도날드,제주노형점,프렌차이즈,"제주특별자치도 제주시 노연로 7, (노형동)",33.48632341,126.4809926,제주,,,,,,
맥도날드,탑동점,프렌차이즈,"제주특별자치도 제주시 임항로 17, (건입동)",33.51673654,126.5267972,제주,,,,,,
맥도날드,제주월드컵스타디움DT점,프렌차이즈,"제주특별자치도 서귀포시 일주서로 7, (강정동)",33.24939276,126.5075101,제주,,,,,,
맥도날드,제주성산점,프렌차이즈,"제주특별자치도 서귀포시 성산읍 일출로 284-1, (성산리)",33.46292912,126.9353464,제주,,,,,,
맥도날드,제주중문DT점,프렌차이즈,"제주특별자치도 서귀포시 중문관광로 38, (색달동)",33.25497384,126.4135835,제주,,,,,,
버거킹,제주이마트점,프렌차이즈,"제주특별자치도 제주시 1100로 3348, (노형동)",33.48495587,126.4804892,제주,,,,,,
버거킹,제주이마트점,프렌차이즈,"제주특별자치도 제주시 1100로 3348, (노형동)",33.48495587,126.4804892,제주,,,,,,
스타벅스,제주송악산점,프렌차이즈,"제주특별자치도 서귀포시 대정읍 형제해안로 322, (상모리)",33.20676109,126.2900347,제주,,,,,,
스타벅스,성산일출봉점,프렌차이즈,"제주특별자치도 서귀포시 성산읍 일출로 284-5, (성산리)",33.46285875,126.9355516,제주,,,,,,
스타벅스,제주서귀포점,프렌차이즈,"제주특별자치도 서귀포시 중정로 53, (서귀동)",33.24779972,126.562079,제주,,,,,,
스타벅스,제주칠성점,프렌차이즈,"제주특별자치도 제주시 관덕로 55, (일도일동)",33.51333776,126.5252942,제주,,,,,,
스타벅스,제주노형점,프렌차이즈,"제주특별자치도 제주시 도령로 27, (노형동)",33.48781327,126.4819134,제주,,,,,,
스타벅스,제주서귀포점,프렌차이즈,"제주특별자치도 서귀포시 천제연로 93, (색달동)",33.2552626,126.4157244,제주,,,,,,
스타벅스,신제주이마트점,프렌차이즈,"제주특별자치도 제주시 1100로 3348, (노형동)",33.48495587,126.4804892,제주,,,,,,
스타벅스,신제주점,프렌차이즈,"제주특별자치도 제주시 노연로 99, (연동)",33.48603845,126.4908747,제주,,,,,,
스타벅스,제주용담DT점,프렌차이즈,"제주특별자치도 제주시 서해안로 380, (용담삼동)",33.51238633,126.4845625,제주,,,,,,
스타벅스,제주중문DT점,프렌차이즈,"제주특별자치도 서귀포시 천제연로 95, (색달동)",33.25510322,126.4159526,제주,,,,,,
스타벅스,중문점,프렌차이즈,"제주특별자치도 서귀포시 중문관광로110번길 32, (색달동)",33.25121233,126.4127286,제주,,,,,,
스타벅스,서귀포DT점,프렌차이즈,"제주특별자치도 서귀포시 일주서로 11, (강정동)",33.24928162,126.506514,제주,,,,,,
스타벅스,제주노형공원점,프렌차이즈,"제주특별자치도 제주시 연북로 12, (노형동)",33.48169024,126.4825367,제주,,,,,,
스타벅스,제주에듀시티점,프렌차이즈,"제주특별자치도 서귀포시 대정읍 에듀시티로 36, (보성리)",33.29179071,126.2843627,제주,,,,,,
스타벅스,제주성산DT점,프렌차이즈,"제주특별자치도 서귀포시 성산읍 일출로 80, (고성리)",33.44974623,126.9206323,제주,,,,,,
스타벅스,제주애월DT점,프렌차이즈,"제주특별자치도 제주시 애월읍 애월해안로 376, (고내리)",33.47268709,126.3488144,제주,,,,,,
스타벅스,제주신화월드점,프렌차이즈,"제주특별자치도 서귀포시 안덕면 신화역사로304번길 38, (서광리)",33.30182016,126.3202942,제주,,,,,,
스타벅스,제주신화월드점,프렌차이즈,"제주특별자치도 서귀포시 안덕면 서광동로34번길 14-19, (서광리)",33.28975495,126.3341911,제주,,,,,,
스타벅스,제주시청점,프렌차이즈,제주특별자치도 제주시 광양7길 1,33.50056923,126.5296539,제주,,,,,,
이디야,중앙점,프렌차이즈,"제주특별자치도 제주시 관덕로13길 2, (일도일동)",33.51333797,126.5260691,제주,,,,,,
이디야,서귀포점,프렌차이즈,"제주특별자치도 서귀포시 중앙로 90, (서귀동)",33.2527175,126.5616444,제주,,,,,,
이디야,서귀포이마트점,프렌차이즈,"제주특별자치도 서귀포시 일주동로 9209, (법환동)",33.24832186,126.5091807,제주,,,,,,
이디야,에스프레소제주노형점,프렌차이즈,"제주특별자치도 제주시 달마루길 10-1, (노형동)",33.48925921,126.4748512,제주,,,,,,
이디야,성읍점,프렌차이즈,"제주특별자치도 서귀포시 표선면 번영로 2644, (성읍리)",33.39909824,126.7847635,제주,,,,,,
이디야,제주한림점,프렌차이즈,"제주특별자치도 제주시 한림읍 한림로 711, (대림리, 정다운아파트)",33.41823446,126.2643669,제주,,,,,,
이디야,성산점,프렌차이즈,"제주특별자치도 서귀포시 성산읍 성산중앙로 43, (성산리)",33.4636983,126.9335728,제주,,,,,,
이디야,제주중문점,프렌차이즈,"제주특별자치도 서귀포시 중문관광로 42, (색달동)",33.25488982,126.4098292,제주,,,,,,
이디야,한라수목원점,프렌차이즈,"제주특별자치도 제주시 수목원길 9, (노형동)",33.46968209,126.4862852,제주,,,,,,
이디야,송악산점,프렌차이즈,"제주특별자치도 서귀포시 대정읍 최남단해안로 578, (상모리)",33.20737031,126.2897547,제주,,,,,,
이디야,서귀포동홍점,프렌차이즈,"제주특별자치도 서귀포시 동홍동로 9, (동홍동)",33.25568184,126.5747845,제주,,,,,,
이디야,제주연북로점,프렌차이즈,"제주특별자치도 제주시 연북로 34, (노형동)",33.48165741,126.4850118,제주,,,,,,
이마트24,이마트제주점,편의점,"제주특별자치도 제주시 탑동로 38, (삼도이동)",33.51795948,126.5212333,제주,,,,,,
탐앤탐스,제주점,프렌차이즈,"제주특별자치도 제주시 광양11길 2, (이도이동)",33.49893231,126.5307469,제주,,,,,,
탐앤탐스,제주중문점,프렌차이즈,"제주특별자치도 서귀포시 천제연로 166, (중문동)",33.25187671,126.4224277,제주,,,,,,
탐앤탐스,제주시청점,프렌차이즈,"제주특별자치도 제주시 중앙로 236, (이도이동)",33.49860182,126.5302468,제주,,,,,,
탐앤탐스,제주삼화지구점,프렌차이즈,"제주특별자치도 제주시 건주로4길 6-4, (도련일동)",33.51627092,126.580342,제주,,,,,,
탐앤탐스,칠성로점,프렌차이즈,"제주특별자치도 제주시 중앙로7길 9, (일도일동)",33.51501122,126.5257609,제주,,,,,,
탐앤탐스,제주대학병원점,프렌차이즈,"제주특별자치도 제주시 아란13길 15, (아라일동)",33.46719668,126.5452564,제주,,,,,,
탐앤탐스,제주점,프렌차이즈,"제주특별자치도 서귀포시 쇠소깍로 122, (하효동)",33.25268476,126.6224573,제주,,,,,,
탐앤탐스,제주쇠소깍점,프렌차이즈,"제주특별자치도 서귀포시 쇠소깍로 122, (하효동)",33.25268393,126.6223822,제주,,,,,,
탐앤탐스,제주대학병원점,프렌차이즈,"제주특별자치도 제주시 아란13길 15, (아라일동)",33.46719668,126.5452564,제주,,,,,,
GS25,삼양해변점,편의점,"제주특별자치도 제주시 선사로8길 16, (삼양일동)",33.5257121,126.587583,제주,,,,,,
GS25,무수천점,편의점,"제주특별자치도 제주시 애월읍 광성로 348, (광령리)",33.46071629,126.4444377,제주,,,,,,
GS25,제주도청,편의점,"제주특별자치도 제주시 신대로 63, (연동)",33.4915952,126.4970623,제주,,,,,,
GS25,서귀보목,편의점,"제주특별자치도 서귀포시 칠십리로 458-1, (보목동)",33.2422541,126.599949,제주,,,,,,
GS25,서귀위미,편의점,"제주특별자치도 서귀포시 남원읍 태위로 69, (위미리)",33.27385043,126.6549913,제주,,,,,,
GS25,삼도점,편의점,"제주특별자치도 제주시 서광로 197-1, (삼도일동)",33.5001659,126.517748,제주,,,,,,
GS25,탑동아람점,편의점,"제주특별자치도 제주시 임항로 32, (건입동)",33.51634972,126.528386,제주,,,,,,
GS25,연동누리안점,편의점,"제주특별자치도 제주시 신대로 144, (연동)",33.4844615,126.4961311,제주,,,,,,
GS25,제주아로마점,편의점,"제주특별자치도 제주시 연동10길 5, (연동)",33.48515161,126.4920844,제주,,,,,,
GS25,삼무점,편의점,"제주특별자치도 제주시 삼무로1길 3, (연동)",33.49110781,126.4896032,제주,,,,,,
GS25,크라운점,편의점,"제주특별자치도 제주시 삼무로3길 26, (연동)",33.4904848,126.4932294,제주,,,,,,
GS25,연동국기점,편의점,"제주특별자치도 제주시 국기로3길 11, (연동)",33.47931835,126.4913356,제주,,,,,,
GS25,중문마을점,편의점,"제주특별자치도 서귀포시 천제연로207번길 16-1, (중문동)",33.25300916,126.4271289,제주,,,,,,
GS25,한라체육관점,편의점,"제주특별자치도 제주시 서광로4길 10, (오라일동)",33.49910351,126.5141073,제주,,,,,,
GS25,성산동남점,편의점,"제주특별자치도 서귀포시 성산읍 오조로 49, (오조리)",33.45839406,126.9155986,제주,,,,,,
GS25,연동신광점,편의점,"제주특별자치도 제주시 도령로 76, (연동)",33.48981801,126.486602,제주,,,,,,
GS25,제주그랜드점,편의점,"제주특별자치도 제주시 연동4길 28, (연동)",33.48353051,126.4877873,제주,,,,,,
GS25,제주연북점,편의점,"제주특별자치도 제주시 과원북4길 82, (연동)",33.48087326,126.4902005,제주,,,,,,
GS25,N제주탐라점,편의점,"제주특별자치도 제주시 삼동길 34, (연동)",33.47815523,126.4950351,제주,,,,,,
GS25,시서귀시장점,편의점,"제주특별자치도 서귀포시 중앙로42번길 9, (서귀동)",33.24853845,126.5628073,제주,,,,,,
GS25,한림뉴월드점,편의점,"제주특별자치도 제주시 한림읍 한림북동길 26, (한림리)",33.41737282,126.2639971,제주,,,,,,
GS25,노형서광점,편의점,"제주특별자치도 제주시 진군1길 4, (노형동)",33.47909952,126.4815383,제주,,,,,,
GS25,애월곽지점,편의점,"제주특별자치도 제주시 애월읍 곽지3길 27, (곽지리)",33.44942367,126.3044732,제주,,,,,,
GS25,제주함덕점,편의점,"제주특별자치도 제주시 조천읍 함덕13길 2, (함덕리)",33.54149622,126.6678928,제주,,,,,,
GS25,성산고성점,편의점,"제주특별자치도 서귀포시 성산읍 고성오조로 73, (고성리)",33.45021533,126.9144635,제주,,,,,,
GS25,노형한빛점,편의점,"제주특별자치도 제주시 원노형남1길 8, (노형동)",33.48393978,126.481443,제주,,,,,,
GS25,오션스위츠점,편의점,"제주특별자치도 제주시 탑동해안로 74, (삼도이동)",33.51823485,126.5231553,제주,,,,,,
GS25,제주도두점,편의점,"제주특별자치도 제주시 서해안로 160, (도두일동)",33.5036581,126.4661616,제주,,,,,,
GS25,제주토스카나호텔점,편의점,"제주특별자치도 서귀포시 용흥로66번길 158-7, (강정동)",33.26562461,126.4846531,제주,,,,,,
GS25,이중섭거리점,편의점,"제주특별자치도 서귀포시 이중섭로 16, (서귀동)",33.24671264,126.5639746,제주,,,,,,
GS25,동홍대리점,편의점,"제주특별자치도 서귀포시 동홍중앙로 49, (동홍동)",33.2550266,126.5718978,제주,,,,,,
GS25,연동문화점,편의점,"제주특별자치도 제주시 신광로 21, (연동)",33.49011659,126.4903844,제주,,,,,,
GS25,일도신천지점,편의점,"제주특별자치도 제주시 천수로 85, (일도이동)",33.50622046,126.5447867,제주,,,,,,
GS25,안덕대평점,편의점,"제주특별자치도 서귀포시 안덕면 난드르로 11, (창천리)",33.2346193,126.3671648,제주,,,,,,
GS25,제주에스중앙병원점,편의점,"제주특별자치도 제주시 월랑로 91, (이호이동)",33.49230741,126.4705368,제주,,,,,,
GS25,제주성산항점,편의점,"제주특별자치도 서귀포시 성산읍 성산등용로 88, (성산리)",33.46934749,126.9299641,제주,,,,,,
GS25,제주보성점,편의점,"제주특별자치도 제주시 중앙로 198, (이도일동)",33.50163416,126.5282261,제주,,,,,,
GS25,연동신라점,편의점,"제주특별자치도 제주시 노연로 61, (연동)",33.48616953,126.4868377,제주,,,,,,
GS25,제주여중고점,편의점,"제주특별자치도 제주시 구산로 46, (아라일동)",33.48389454,126.5399419,제주,,,,,,
GS25,휴팰리스점,편의점,"제주특별자치도 제주시 구남동2길 59, (이도이동, 휴팰리스1차)",33.48724373,126.5326767,제주,,,,,,
GS25,제주삼화점,편의점,"제주특별자치도 제주시 화삼북로2길 32, (화북일동)",33.51448228,126.576109,제주,,,,,,
GS25,제주공항점,편의점,제주특별자치도 제주시 신성로6길 16,33.49438721,126.5253358,제주,,,,,,
GS25,월정해변점,편의점,"제주특별자치도 제주시 구좌읍 월정7길 52-1, (월정리)",33.55532704,126.7964718,제주,,,,,,
GS25,서귀효돈점,편의점,"제주특별자치도 서귀포시 효돈로 144, (신효동)",33.26371939,126.6142348,제주,,,,,,
GS25,N제주관제점,편의점,"제주특별자치도 서귀포시 대정읍 일주서로 2512-41, (하모리)",33.23049365,126.2558561,제주,,,,,,
GS25,서귀에덴점,편의점,"제주특별자치도 서귀포시 남원읍 태위로 623, (남원리)",33.27774939,126.7132826,제주,,,,,,
GS25,제주칠성로점,편의점,"제주특별자치도 제주시 도령로11길 14, (연동, 만진리치빌)",33.49200578,126.4870912,제주,,,,,,
GS25,제주화순점,편의점,"제주특별자치도 서귀포시 안덕면 화순로 98, (화순리)",33.24684696,126.3360465,제주,,,,,,
GS25,화북주공점,편의점,제주특별자치도 제주시 동화로1길 45-10,33.51831058,126.577381,제주,,,,,,
GS25,서귀호근점,편의점,"제주특별자치도 서귀포시 호근서호로 153, (호근동)",33.25725121,126.5245896,제주,,,,,,
GS25,아라금천점,편의점,"제주특별자치도 제주시 아봉로 83, (아라이동)",33.47858018,126.5526617,제주,,,,,,
GS25,다인리조트점,편의점,"제주특별자치도 제주시 애월읍 애월해안로 400-9, (고내리)",33.47142227,126.3513233,제주,,,,,,
GS25,안덕사계점,편의점,"제주특별자치도 서귀포시 안덕면 사계중앙로 8-3, (사계리)",33.23106119,126.2974681,제주,,,,,,
GS25,제주남문점,편의점,"제주특별자치도 제주시 남성로 159, (삼도이동)",33.50947275,126.522497,제주,,,,,,
GS25,함덕골든튤립,편의점,"제주특별자치도 제주시 조천읍 조함해안로 504, (함덕리)",33.54239637,126.6669207,제주,,,,,,
GS25,서귀대포점,편의점,"제주특별자치도 서귀포시 이어도로 129, (대포동)",33.23915786,126.4361962,제주,,,,,,
GS25,제주화북점,편의점,"제주특별자치도 제주시 진동로5길 31, (화북일동, 화북시장)",33.52180841,126.5664089,제주,,,,,,
GS25,우도검멀레점,편의점,"제주특별자치도 제주시 우도면 우도해안길 1118, (연평리)",33.49778827,126.9686363,제주,,,,,,
GS25,제주국제점,편의점,"제주특별자치도 서귀포시 대정읍 글로벌에듀로145번길 40, (구억리)",33.29574227,126.2897927,제주,,,,,,
GS25,제주공항점,편의점,"제주특별자치도 제주시 공항로 2, (용담이동)",33.50592635,126.4960074,제주,,,,,,
GS25,N서귀포호텔점,편의점,"제주특별자치도 제주시 아연로 62-8, (연동)",33.47747107,126.4973493,제주,,,,,,
GS25,마라도점,편의점,"제주특별자치도 서귀포시 대정읍 마라로101번길 43, (가파리)",33.11832632,126.2666158,제주,,,,,,
GS25,일성제주비치점,편의점,"제주특별자치도 제주시 한림읍 한림로 127, (금능리)",33.38577141,126.2211771,제주,,,,,,
GS25,새마을연수원점,편의점,"제주특별자치도 제주시 애월읍 평화로 2175, (소길리)",33.41368893,126.3940834,제주,,,,,,
GS25,열린병원점,편의점,"제주특별자치도 서귀포시 일주동로 8638, (동홍동)",33.25445683,126.5654791,제주,,,,,,
GS25,재즈마을점,편의점,"제주특별자치도 서귀포시 소보리당로 220, (상예동)",33.26216628,126.3847031,제주,,,,,,
GS25,제주도련점,편의점,"제주특별자치도 제주시 도련2길 12, (도련일동)",33.50715941,126.5893266,제주,,,,,,
GS25,중앙여고점,편의점,제주특별자치도 제주시 구남동5길 6,33.48963606,126.5398133,제주,,,,,,
GS25,연동달그네점,편의점,"제주특별자치도 제주시 노연로 96, (연동)",33.48569996,126.4904718,제주,,,,,,
GS25,제주한경점,편의점,"제주특별자치도 제주시 한경면 중산간서로 3660, (저지리)",33.33096819,126.2562298,제주,,,,,,
GS25,서귀엘지점,편의점,"제주특별자치도 서귀포시 중앙로 45, (서귀동)",33.24869533,126.56156,제주,,,,,,
GS25,노형국일점,편의점,"제주특별자치도 제주시 원노형6길 8, (노형동)",33.48529015,126.4827536,제주,,,,,,
GS25,서귀오션점,편의점,"제주특별자치도 서귀포시 중앙로 19-1, (서귀동)",33.24622823,126.5618473,제주,,,,,,
GS25,대정상모점,편의점,"제주특별자치도 서귀포시 대정읍 상모로 290, (상모리)",33.22339823,126.2584211,제주,,,,,,
GS25,금능해변점,편의점,"제주특별자치도 제주시 한림읍 금능길 92, (금능리)",33.38890409,126.2328382,제주,,,,,,
GS25,제주하귀점,편의점,"제주특별자치도 제주시 애월읍 일주서로 7143, (하귀1리)",33.48602557,126.4119333,제주,,,,,,
GS25,서귀고점,편의점,"제주특별자치도 서귀포시 중앙로 148, (동홍동)",33.25783466,126.5605196,제주,,,,,,
GS25,대평중앙점,편의점,"제주특별자치도 서귀포시 예래로 454, (하예동)",33.2353374,126.3696726,제주,,,,,,
GS25,서귀서문점,편의점,"제주특별자치도 서귀포시 서문로 11, (서귀동)",33.25160975,126.5601924,제주,,,,,,
GS25,제주세화점,편의점,"제주특별자치도 제주시 구좌읍 구좌로 77-1, (세화리)",33.52124284,126.8589794,제주,,,,,,
GS25,제주간드락점,편의점,"제주특별자치도 제주시 간월동로 10, (아라이동)",33.48547286,126.5438211,제주,,,,,,
GS25,제주남광점,편의점,"제주특별자치도 제주시 오복4길 38, (이도이동, 이도한우리아파트)",33.49352644,126.5379079,제주,,,,,,
GS25,제주산방산점,편의점,"제주특별자치도 서귀포시 안덕면 산방로 260, (사계리)",33.23481171,126.3080378,제주,,,,,,
GS25,제주용담점,편의점,"제주특별자치도 제주시 용남1길 18, (용담일동)",33.50718457,126.5143566,제주,,,,,,
GS25,제주아라점,편의점,"제주특별자치도 제주시 중앙로 576, (아라일동)",33.47200318,126.5453482,제주,,,,,,
GS25,제주성산점,편의점,"제주특별자치도 서귀포시 성산읍 성산중앙로 44, (성산리)",33.46357449,126.933854,제주,,,,,,
GS25,제주수덕점,편의점,"제주특별자치도 제주시 수덕5길 40, (노형동)",33.48515505,126.4746865,제주,,,,,,
GS25,신라기숙사점,편의점,"제주특별자치도 서귀포시 홍중로 35, (서홍동)",33.25522905,126.5566347,제주,,,,,,
GS25,신서귀LH점,편의점,"제주특별자치도 서귀포시 서호남로 92-15, (서호동, 제주서귀포혁신도시엘에이치1단지)",33.24957712,126.5237099,제주,,,,,,
GS25,노형드림점,편의점,"제주특별자치도 제주시 원노형남2길 39, (노형동)",33.4827434,126.4853479,제주,,,,,,
GS25,이도사랑점,편의점,"제주특별자치도 제주시 연삼로 417, (이도이동)",33.49630246,126.5355477,제주,,,,,,
GS25,제주남원점,편의점,"제주특별자치도 서귀포시 남원읍 태위로 680-1, (남원리)",33.27900088,126.7192218,제주,,,,,,
GS25,제주영어마을점,편의점,"제주특별자치도 서귀포시 대정읍 에듀시티로 74, (보성리, 라온프라이빗에듀)",33.28790855,126.2813578,제주,,,,,,
GS25,도남방선문점,편의점,"제주특별자치도 제주시 복지로 72, (도남동, 방선문빌리지4차)",33.48718406,126.5253719,제주,,,,,,
GS25,N구삼예비점,편의점,"제주특별자치도 서귀포시 배낭골로 109, (토평동)",33.29769345,126.5863197,제주,,,,,,
GS25,중문마을점,편의점,"제주특별자치도 서귀포시 천제연로207번길 18, (중문동)",33.25318984,126.4271578,제주,,,,,,
GS25,한라수목원점,편의점,"제주특별자치도 제주시 수목원길 65-6, (연동)",33.47053604,126.4919934,제주,,,,,,
GS25,제주하귀로점,편의점,"제주특별자치도 제주시 애월읍 하귀로23길 1, (하귀2리)",33.48016609,126.4028631,제주,,,,,,
GS25,제대정문점,편의점,"제주특별자치도 제주시 제주대학로 113, (아라이동)",33.46035206,126.5621184,제주,,,,,,
GS25,제주원노형점,편의점,"제주특별자치도 제주시 원노형3길 34, (노형동)",33.48678499,126.4826092,제주,,,,,,
GS25,제주표선점,편의점,"제주특별자치도 서귀포시 표선면 표선중앙로 90, (표선리)",33.32563194,126.833514,제주,,,,,,
GS25,제주중앙여중점,편의점,"제주특별자치도 제주시 서사로11길 5, (삼도이동)",33.50586442,126.5208149,제주,,,,,,
GS25,정든마을점,편의점,"제주특별자치도 제주시 달마루길 20-1, (노형동)",33.48999701,126.473999,제주,,,,,,
GS25,노형이화점,편의점,"제주특별자치도 제주시 원노형로 3, (노형동)",33.48810061,126.4840281,제주,,,,,,
GS25,서귀터미널점,편의점,"제주특별자치도 서귀포시 일주동로 9213, (법환동)",33.24870201,126.5085519,제주,,,,,,
GS25,제대후문점,편의점,"제주특별자치도 제주시 산천단동2길 20, (아라일동)",33.44972516,126.5584758,제주,,,,,,
GS25,일도중앙점,편의점,"제주특별자치도 제주시 고마로 143, (일도이동)",33.50196594,126.5433297,제주,,,,,,
GS25,연동서강점,편의점,"제주특별자치도 제주시 신대로16길 43, (연동)",33.48670838,126.4918422,제주,,,,,,
GS25,첨단점,편의점,"제주특별자치도 제주시 첨단로 217, (영평동)",33.45296219,126.5717483,제주,,,,,,
GS25,한라병원점,편의점,"제주특별자치도 제주시 도령로 65, (연동)",33.49025786,126.4849696,제주,,,,,,
GS25,하귀휴먼점,편의점,"제주특별자치도 제주시 애월읍 광령평화10길 1, (광령리)",33.45482412,126.442607,제주,,,,,,
GS25,제주한경점,편의점,"제주특별자치도 제주시 한경면 중산간서로 3662, (저지리)",33.33125585,126.2561703,제주,,,,,,
GS25,한림동명점,편의점,"제주특별자치도 제주시 한림읍 한림중앙로 72, (동명리)",33.40821064,126.2663938,제주,,,,,,
GS25,서귀중문점,편의점,"제주특별자치도 서귀포시 천제연로 210, (중문동)",33.25146575,126.4269956,제주,,,,,,
GS25,도남성환점,편의점,"제주특별자치도 제주시 신성로 84, (도남동)",33.49565793,126.5283273,제주,,,,,,
GS25,신서귀포점,편의점,"제주특별자치도 서귀포시 신서귀로97번길 45, (강정동)",33.25455558,126.5072291,제주,,,,,,
GS25,제주도원점,편의점,"제주특별자치도 제주시 과원로 49, (연동)",33.47650868,126.4886409,제주,,,,,,
GS25,한림옹포점,편의점,"제주특별자치도 제주시 한림읍 한림로 494, (옹포리)",33.40324365,126.2522933,제주,,,,,,
GS25,애월구엄점,편의점,"제주특별자치도 제주시 애월읍 애월해안로 715, (구엄리)",33.4840002,126.3773799,제주,,,,,,
GS25,한라점,편의점,"제주특별자치도 제주시 한라대학로 63, (노형동)",33.47666882,126.4774172,제주,,,,,,
GS25,노형사랑점,편의점,"제주특별자치도 제주시 노형로 379, (노형동)",33.48402698,126.4760619,제주,,,,,,
GS25,제주대정점,편의점,"제주특별자치도 서귀포시 대정읍 하모중앙로 75, (하모리)",33.22139151,126.252261,제주,,,,,,
GS25,화북동중점,편의점,"제주특별자치도 제주시 일주동로 250, (화북일동)",33.51970968,126.5720407,제주,,,,,,
GS25,쇠소깍점,편의점,"제주특별자치도 서귀포시 쇠소깍로 151-8, (하효동)",33.25055241,126.6212352,제주,,,,,,
GS25,제주용흥점,편의점,"제주특별자치도 제주시 용담로 89, (용담이동)",33.51228969,126.512289,제주,,,,,,
GS25,제주동교점,편의점,"제주특별자치도 제주시 동문로 68, (일도이동)",33.51336835,126.5339471,제주,,,,,,
GS25,담모라점,편의점,"제주특별자치도 서귀포시 안덕면 일주서로 1975-11, (사계리)",33.24970614,126.3060876,제주,,,,,,
GS25,천지연점,편의점,"제주특별자치도 서귀포시 남성중로 2-11, (서홍동)",33.24420332,126.559831,제주,,,,,,
GS25,서귀정방점,편의점,"제주특별자치도 서귀포시 남원읍 태위로 69, (위미리)",33.27385043,126.6549913,제주,,,,,,
GS25,탑동아라점,편의점,"제주특별자치도 제주시 임항로 18, (건입동)",33.51635731,126.5267498,제주,,,,,,
GS25,함덕해변점,편의점,"제주특별자치도 제주시 조천읍 조함해안로 530, (함덕리)",33.54246079,126.6695576,제주,,,,,,
GS25,제주베두리점,편의점,"제주특별자치도 제주시 삼무로 77, (연동)",33.49006456,126.4950013,제주,,,,,,
GS25,제주아라점,편의점,"제주특별자치도 제주시 간월동로 6, (아라이동)",33.48501913,126.5435705,제주,,,,,,
GS25,이도중앙점,편의점,"제주특별자치도 제주시 신설로7길 25, (이도이동)",33.49384961,126.5446816,제주,,,,,,
GS25,노형월광점,편의점,"제주특별자치도 제주시 월광로 25, (노형동)",33.48419585,126.4641808,제주,,,,,,
GS25,노형중점,편의점,"제주특별자치도 제주시 노형5길 42, (노형동)",33.47965231,126.4744279,제주,,,,,,
GS25,삼화엘에이치점,편의점,"제주특별자치도 제주시 화삼로 110, (도련이동, 제주삼화엘에이치3단지)",33.5144318,126.5866577,제주,,,,,,
GS25,탐라도서관점,편의점,"제주특별자치도 제주시 노형1길 43, (노형동, 노형블래스빌)",33.47970101,126.4776547,제주,,,,,,
GS25,함덕골든튤립점,편의점,"제주특별자치도 제주시 조천읍 조함해안로 504, (함덕리)",33.54239637,126.6669207,제주,,,,,,
GS25,외도중앙점,편의점,"제주특별자치도 제주시 우정로8길 20, (외도일동)",33.48938904,126.4289583,제주,,,,,,
GS25,제주용화점,편의점,"제주특별자치도 제주시 용화로 26, (용담이동)",33.50972948,126.5063166,제주,,,,,,
GS25,서귀공천포점,편의점,"제주특별자치도 서귀포시 남원읍 일주동로 7897, (신례리)",33.26621592,126.6419286,제주,,,,,,
GS25,편의점동홍대림점,편의점,"제주특별자치도 서귀포시 동홍중앙로 50, (동홍동)",33.2550582,126.5722943,제주,,,,,,
GS25,김녕예그리나점,편의점,"제주특별자치도 제주시 구좌읍 일주동로 1845, (김녕리)",33.5565532,126.7288165,제주,,,,,,
GS25,서귀신시가지점,편의점,"제주특별자치도 서귀포시 신서로48번길 52-11, (법환동)",33.25212441,126.5105004,제주,,,,,,
GS25,곽지해변점,편의점,"제주특별자치도 제주시 애월읍 곽지1길 28, (곽지리)",33.44858384,126.3043712,제주,,,,,,
GS25,탑동공원점,편의점,"제주특별자치도 제주시 탑동로 37, (삼도이동)",33.51755901,126.5209172,제주,,,,,,
GS25,성산해뜰점,편의점,"제주특별자치도 서귀포시 성산읍 일출로 270-8, (성산리)",33.46153502,126.9346965,제주,,,,,,
GS25,너울빌리지점,편의점,"제주특별자치도 제주시 한경면 일주서로 4469, (금등리)",33.36275088,126.1934114,제주,,,,,,
GS25,안덕서광점,편의점,"제주특별자치도 서귀포시 안덕면 중산간서로 1882, (서광리)",33.2892221,126.32206,제주,,,,,,
GS25,동광로터리점,편의점,"제주특별자치도 서귀포시 안덕면 신화역사로 493, (동광리)",33.31031083,126.3402642,제주,,,,,,
GS25,노형정원,편의점,"제주특별자치도 제주시 노형4길 17, (노형동)",33.48162429,126.4764268,제주,,,,,,
GS25,서귀홍중점,편의점,"제주특별자치도 서귀포시 홍중로 57, (서홍동)",33.2576464,126.5567237,제주,,,,,,
GS25,과원점,편의점,"제주특별자치도 제주시 과원로 51, (연동)",33.47650282,126.4888992,제주,,,,,,
GS25,제주이호점,편의점,"제주특별자치도 제주시 일주서로 7519, (이호일동)",33.49495471,126.4499591,제주,,,,,,
GS25,아라중앙점,편의점,"제주특별자치도 제주시 아란2길 79, (아라일동)",33.47046236,126.5415872,제주,,,,,,
GS25,신엄포구점,편의점,"제주특별자치도 제주시 애월읍 애월해안로 416, (신엄리)",33.4735704,126.352864,제주,,,,,,
GS25,건입현대점,편의점,"제주특별자치도 제주시 만덕로3길 19, (건입동, 우일)",33.51612938,126.5333731,제주,,,,,,
GS25,제주번영점,편의점,"제주특별자치도 제주시 번영로 470, (봉개동)",33.49145114,126.5922607,제주,,,,,,
GS25,성산아로하점,편의점,"제주특별자치도 서귀포시 성산읍 성산등용로 40, (성산리)",33.46649007,126.9310966,제주,,,,,,
GS25,이도월드컵점,편의점,"제주특별자치도 제주시 서광로29길 25, (이도일동, 장원월드컵아파트)",33.50216155,126.5255699,제주,,,,,,
GS25,퍼시픽랜드점,편의점,"제주특별자치도 서귀포시 중문관광로 154-17, (색달동)",33.24502878,126.4156623,제주,,,,,,
GS25,산방산온천,편의점,"제주특별자치도 서귀포시 안덕면 사계북로41번길 178-3, (사계리)",33.24908546,126.2982668,제주,,,,,,
GS25,한라대학점,편의점,"제주특별자치도 제주시 한라대학로 72, (노형동)",33.47612691,126.4780722,제주,,,,,,
GS25,제주하나호텔,편의점,"제주특별자치도 서귀포시 중문관광로72번길 53, (색달동)",33.24991028,126.4082025,제주,,,,,,
GS25,제주영평,편의점,"제주특별자치도 제주시 아봉로 247, (영평동)",33.47680727,126.5684631,제주,,,,,,
GS25,제주천수점,편의점,"제주특별자치도 제주시 동광로 154, 1동  (일도이동, 일도월드하우스)",33.50901945,126.5428349,제주,,,,,,
GS25,함덕코업시티점,편의점,"제주특별자치도 제주시 조천읍 조함해안로 474, (함덕리)",33.54320484,126.6633014,제주,,,,,,
GS25,제주교래점,편의점,"제주특별자치도 제주시 조천읍 비자림로 658, (교래리)",33.43691933,126.6770852,제주,,,,,,
GS25,제주반딧불점,편의점,"제주특별자치도 제주시 한경면 녹차분재로 506, (저지리)",33.3173601,126.2701491,제주,,,,,,
GS25,모슬포항점,편의점,"제주특별자치도 서귀포시 대정읍 하모항구로 4, (하모리)",33.21628527,126.2520193,제주,,,,,,
GS25,서귀서광로점,편의점,"제주특별자치도 서귀포시 안덕면 녹차분재로 61, (서광리)",33.29069564,126.30112,제주,,,,,,
GS25,탐라스테이점,편의점,"제주특별자치도 제주시 애월읍 애월해안로 881, (하귀2리)",33.48711808,126.3910938,제주,,,,,,
GS25,금악로타리점,편의점,"제주특별자치도 제주시 한림읍 중산간서로 4287, (금악리)",33.35772498,126.2944362,제주,,,,,,
GS25,중문사거리점,편의점,"제주특별자치도 서귀포시 중문로 80, (중문동)",33.25800229,126.4269965,제주,,,,,,
GS25,세화삼거리점,편의점,"제주특별자치도 제주시 구좌읍 일주동로 3103, (평대리)",33.52377004,126.8514647,제주,,,,,,
GS25,서귀솔동산점,편의점,"제주특별자치도 서귀포시 솔동산로 20, (서귀동)",33.24313995,126.5637755,제주,,,,,,
GS25,노형신도시점,편의점,"제주특별자치도 제주시 노형11길 12, (노형동, 인선빌딩)",33.48394314,126.4780431,제주,,,,,,
GS25,서귀중정점,편의점,"제주특별자치도 서귀포시 중정로 17-1, (서귀동)",33.24764932,126.5584332,제주,,,,,,
GS25,서귀법환점,편의점,"제주특별자치도 서귀포시 이어도로 900, (법환동)",33.23662213,126.5109458,제주,,,,,,
GS25,외도대박점,편의점,"제주특별자치도 제주시 우정로16길 30, (외도일동)",33.48609925,126.4276083,제주,,,,,,
GS25,노형광평점,편의점,"제주특별자치도 제주시 광평동로 13, (노형동)",33.4815033,126.4709956,제주,,,,,,
GS25,연동해피점,편의점,"제주특별자치도 제주시 제원길 43, (연동)",33.48618432,126.4895273,제주,,,,,,
GS25,모슬포항점,편의점,"제주특별자치도 서귀포시 대정읍 하모항구로 48, (하모리)",33.21813105,126.2499232,제주,,,,,,
GS25,성산삼달점,편의점,"제주특별자치도 서귀포시 성산읍 일주동로 5251, (삼달리)",33.36934199,126.8694234,제주,,,,,,
GS25,중문시티점,편의점,"제주특별자치도 서귀포시 중문상로 27, (중문동)",33.25089749,126.4248382,제주,,,,,,
GS25,수산삼거리점,편의점,"제주특별자치도 서귀포시 성산읍 서성일로 1029, (수산리)",33.4437925,126.8886563,제주,,,,,,
GS25,함덕라마다점,편의점,"제주특별자치도 제주시 조천읍 신북로 474, (함덕리)",33.54326893,126.6608886,제주,,,,,,
GS25,도두해안로점,편의점,"제주특별자치도 제주시 서해안로 301-1, (도두이동)",33.50910202,126.4777319,제주,,,,,,
GS25,금호리조트제주점,편의점,"제주특별자치도 서귀포시 남원읍 태위로 522-12, (남원리)",33.27364635,126.702813,제주,,,,,,
GS25,서광로터리점,편의점,"제주특별자치도 서귀포시 안덕면 중산간서로 2084, (서광리)",33.28614756,126.3021313,제주,,,,,,
GS25,제주신엄점,편의점,"제주특별자치도 제주시 애월읍 일주서로 6733, (신엄리, 은창빌라)",33.47295848,126.3713679,제주,,,,,,
GS25,노형드림점,편의점,"제주특별자치도 제주시 원노형남2길 37, (노형동)",33.48270577,126.4852195,제주,,,,,,
GS25,연동에코점,편의점,"제주특별자치도 제주시 신광로 16, (연동)",33.49067947,126.4899657,제주,,,,,,
GS25,아라타운점,편의점,"제주특별자치도 제주시 인다8길 8, (아라일동)",33.47606555,126.5457967,제주,,,,,,
GS25,월산마을점,편의점,"제주특별자치도 제주시 월산남길 19, (노형동)",33.47168276,126.464961,제주,,,,,,
GS25,중문희망점,편의점,"제주특별자치도 서귀포시 중문로 53, (중문동)",33.25631735,126.4256531,제주,,,,,,
GS25,노형에비뉴점,편의점,"제주특별자치도 제주시 연북로 21, (노형동)",33.48238858,126.4836112,제주,,,,,,
GS25,연동중앙점,편의점,"제주특별자치도 제주시 연동7길 35, (연동)",33.48674218,126.4909163,제주,,,,,,
GS25,사계포구점,편의점,"제주특별자치도 서귀포시 안덕면 사계남로 165, (사계리)",33.22826886,126.3075631,제주,,,,,,
GS25,강정LH점,편의점,"제주특별자치도 서귀포시 대청로25번길 9, (강정동, 강정엘에이치아파트)",33.253243,126.5022938,제주,,,,,,
GS25,제주신북점,편의점,"제주특별자치도 제주시 조천읍 신북로 66, 102동  (신촌리, 에스디빌)",33.5339049,126.6209524,제주,,,,,,
GS25,서귀운진항점,편의점,"제주특별자치도 서귀포시 대정읍 최남단해안로125번길 35, (하모리)",33.21446832,126.2574612,제주,,,,,,
GS25,동홍그린점,편의점,"제주특별자치도 서귀포시 동홍동로32번길 12, (동홍동)",33.25756467,126.5762242,제주,,,,,,
GS25,한림금능점,편의점,"제주특별자치도 제주시 한림읍 한림로 224, (금능리)",33.38660733,126.231724,제주,,,,,,
GS25,관광대기숙사점,편의점,"제주특별자치도 제주시 애월읍 평화로 2715, (광령리)",33.44746265,126.4343607,제주,,,,,,
GS25,도두해안로점,편의점,"제주특별자치도 제주시 서해안로 301-1, (도두이동)",33.5090938,126.4777966,제주,,,,,,
GS25,협재포구점,편의점,"제주특별자치도 제주시 한림읍 협재1길 42, (협재리)",33.39837078,126.2443083,제주,,,,,,
GS25,서귀포부두점,편의점,"제주특별자치도 서귀포시 칠십리로 78, (서귀동)",33.23969386,126.5643898,제주,,,,,,
GS25,아라나래점,편의점,"제주특별자치도 제주시 인다2길 75-1, (아라일동)",33.47132363,126.5504479,제주,,,,,,
GS25,성산동남점,편의점,"제주특별자치도 서귀포시 성산읍 고성오조로 47, (고성리)",33.44793868,126.9149758,제주,,,,,,
GS25,제주약천사점,편의점,"제주특별자치도 서귀포시 이어도로 293-20, (하원동)",33.24455612,126.4511431,제주,,,,,,
GS25,제주난타파크점,편의점,"제주특별자치도 제주시 선돌목동길 56-26, (오등동)",33.4458159,126.5479687,제주,,,,,,
GS25,중문버자야점,편의점,"제주특별자치도 서귀포시 예래로 38, (상예동)",33.2564273,126.4017638,제주,,,,,,
GS25,서귀글램블루점,편의점,"제주특별자치도 서귀포시 명동로 46, (서귀동)",33.24724234,126.5669061,제주,,,,,,
GS25,제주하광로점,편의점,"제주특별자치도 제주시 애월읍 하귀9길 71, (하귀1리, 제주하귀휴먼시아2단지)",33.48123402,126.4151192,제주,,,,,,
GS25,귀일중점,편의점,"제주특별자치도 제주시 애월읍 항몽로 34, (하귀2리)",33.4806317,126.4054151,제주,,,,,,
GS25,제주애월중점,편의점,"제주특별자치도 제주시 애월읍 애월로 151, (애월리)",33.46388857,126.3233379,제주,,,,,,
GS25,이호해수욕장점,편의점,"제주특별자치도 제주시 서해안로 24, (이호일동)",33.49989348,126.457038,제주,,,,,,
GS25,도남사거리점,편의점,"제주특별자치도 제주시 신성로 92, (도남동)",33.4960989,126.5290193,제주,,,,,,
GS25,해도점,편의점,"제주특별자치도 제주시 애월읍 하광로 8, (하귀1리, 해도빌리지)",33.48419663,126.4106218,제주,,,,,,
GS25,노형광평점,편의점,"제주특별자치도 제주시 광평동로 13, (노형동)",33.4814858,126.471039,제주,,,,,,
GS25,성산오조점,편의점,"제주특별자치도 서귀포시 성산읍 한도로 129, (오조리)",33.46895341,126.9219434,제주,,,,,,
GS25,서귀혁신점,편의점,"제주특별자치도 서귀포시 대청로 33, (강정동)",33.25273335,126.503397,제주,,,,,,
GS25,제주신평점,편의점,"제주특별자치도 서귀포시 대정읍 중산간서로 2613, (신평리)",33.26483341,126.2590264,제주,,,,,,
GS25,성산신양점,편의점,"제주특별자치도 서귀포시 성산읍 섭지코지로26번길 6, (고성리)",33.43876121,126.9192412,제주,,,,,,
GS25,한림중앙점,편의점,"제주특별자치도 제주시 한림읍 한림로 656, (한림리)",33.41404585,126.2633323,제주,,,,,,
GS25,대정한신점,편의점,"제주특별자치도 서귀포시 대정읍 에듀시티로 102, (보성리, 한신더휴)",33.2881798,126.2788084,제주,,,,,,
GS25,이도신설점,편의점,"제주특별자치도 제주시 신설로2길 1, (이도이동)",33.49401769,126.542107,제주,,,,,,
GS25,제주메종글래드호텔점,편의점,"제주특별자치도 제주시 노연로 80, (연동)",33.48505257,126.4883957,제주,,,,,,
GS25,연동은수길점,편의점,"제주특별자치도 제주시 수목원길 23, (연동)",33.46938863,126.4873553,제주,,,,,,
GS25,표선동서로점,편의점,"제주특별자치도 서귀포시 표선면 표선동서로 76, (표선리)",33.31263542,126.8244948,제주,,,,,,
GS25,제주비자림점,편의점,"제주특별자치도 제주시 구좌읍 비자림로 2279, (평대리)",33.4965925,126.8119636,제주,,,,,,
GS25,제주성읍점,편의점,"제주특별자치도 서귀포시 표선면 서성일로 24, (성읍리)",33.39420105,126.8013093,제주,,,,,,
GS25,법환포구점,편의점,"제주특별자치도 서귀포시 막숙포로 66, (법환동)",33.23577538,126.5147796,제주,,,,,,
GS25,삼도동양점,편의점,"제주특별자치도 제주시 홍랑길 20, (삼도일동, 동양맨션)",33.50152131,126.5232885,제주,,,,,,
GS25,제주대동점,편의점,"제주특별자치도 제주시 대동길 2, (이호이동)",33.49425518,126.4632822,제주,,,,,,
GS25,노형중앙점,편의점,"제주특별자치도 제주시 다랑곶길 19, (노형동)",33.48797086,126.48006,제주,,,,,,
GS25,이도구남점,편의점,"제주특별자치도 제주시 구남동2길 11-1, (이도이동)",33.4898858,126.5365272,제주,,,,,,
GS25,연동모디움점,편의점,"제주특별자치도 제주시 삼무로1길 10-9, (연동)",33.4903728,126.4884754,제주,,,,,,
GS25,성산오일장점,편의점,"제주특별자치도 서귀포시 성산읍 고성오조로 106, (고성리)",33.45297984,126.9140633,제주,,,,,,
GS25,제주대흘점,편의점,"제주특별자치도 제주시 조천읍 중산간동로 700, (대흘리)",33.49774728,126.6591902,제주,,,,,,
GS25,산방사계로점,편의점,"제주특별자치도 서귀포시 안덕면 사계로114번길 53-7, (사계리)",33.24373045,126.3042287,제주,,,,,,
GS25,R제주예시장점,편의점,"제주특별자치도 제주시 애월읍 평화로 2144, (유수암리)",33.40982751,126.3931762,제주,,,,,,
GS25,외도부영점,편의점,"제주특별자치도 제주시 우정로7길 30, (외도일동)",33.48909427,126.4341606,제주,,,,,,