브랜드명,지점명,지점명_병합,업체유형,도로명주소,위도,경도,ID,연락처,주차시설,평점,판매자ID,판매상품목록
GS25,성남대로점,,편의점,경기도 성남시 수정구 성남대로 1196,37.4365743815294,127.128707264453,,,,,,
나들가게, ,,편의점,"경기도 수원시 팔달구 갓매산로 21, (매산로3가)",37.2665390329024,127.006198688633,,,,,,
GS25, ,서이천IC,편의점,경기도 이천시 신둔면 서이천로 876,37.2964179612576,127.399346623508,,,,,,
GS25, ,시,편의점,경기도 안산시 상록구 광덕1로 354,37.306629976046295,126.84925664146499,,,,,,
GS25,포일대림점,포일대림점,편의점,경기도 의왕시 내손중앙로 11,37.389016543328,126.97798956931801,,,,,,
나들가게, ,,편의점,경기도 성남시 중원구 둔촌대로 300,37.4291324108475,127.149866147381,,,,,,
GS25,교하본점,교하본점,편의점,경기도 파주시 청석로 300,37.730014134609604,126.71865283898701,,,,,,
맥도날드,북수원DT점,,프렌차이즈,"경기도 수원시 장안구 경수대로 991, (송죽동)",37.305193294319295,127.002712214258,,,,,,
스타벅스,수원이마트점,,프렌차이즈,"경기도 수원시 권선구 경수대로 270, (권선동)",37.2501017782401,127.020087664145,,,,,,
이디야, ,,프렌차이즈,경기도 안양시 만안구 양화로 34,37.3966838188295,126.91421016450899,,,,,,
버거킹,성남이마트점,,프렌차이즈,경기도 성남시 수정구 수정로 201,37.4442813117988,127.141399637783,,,,,,
GS25,첼시아웃렛점,,편의점,경기도 파주시 탄현면 필승로 210,37.76861813132071,126.69208613621001,,,,,,
GS25,화성봉담점,,편의점,경기도 화성시 봉담읍 와우로 91,37.2141250821661,126.97582427314501,,,,,,
버거킹,의정부신세계점,,프렌차이즈,경기도 의정부시 평화로 525,37.737982314148795,127.045857428737,,,,,,
나들가게, ,,편의점,경기도 양평군 양서면 북한강로 17-1,37.545582712896596,127.320467570989,,,,,,
GS25,제부펜션점,,편의점,경기도 화성시 서신면 해안길 412,37.176316602711,126.622168502114,,,,,,
나들가게, ,,편의점,"경기도 수원시 팔달구 권광로 367, (우만동)",37.2796703578731,127.037025187065,,,,,,
탐앤탐스,안산성포점,안산성포점,프렌차이즈,경기도 안산시 상록구 예술광장1로 126,37.3269173282621,126.84415186543998,,,,,,
나들가게, ,,편의점,경기도 고양시 일산동구 숲속마을1로 116,37.6713241935551,126.80102731855301,,,,,,
GS25,이천영창점,이천영창점,편의점,경기도 이천시 영창로 207,37.2811089990567,127.44570404924801,,,,,,
GS25,덕평IC점,덕평IC점,편의점,경기도 광주시 도척면 도척로 214,37.333445351499,127.337098390069,,,,,,
GS25,김포데시앙점,,편의점,경기도 김포시 양촌읍 황금로89번길 25,37.618629717446204,126.62403691158899,,,,,,
GS25,산본하이츠점,,편의점,경기도 군포시 산본로323번길 7,37.3592998843694,126.933160242706,,,,,,
GS25,남양주도곡점,남양주도곡점,편의점,경기도 남양주시 와부읍 덕소로 230-40,37.5770117659024,127.21989711360399,,,,,,
GS25, ,화성행정,편의점,경기도 화성시 향남읍 행정서로1길 32,37.1273995521591,126.914648048076,,,,,,
GS25, ,진접부영,편의점,경기도 남양주시 진접읍 해밀예당3로 38,37.7147672769794,127.200284726656,,,,,,
GS25, ,호계으뜸,편의점,경기도 안양시 동안구 갈산로 16,37.373591371115204,126.96259540254101,,,,,,
GS25, ,가좌벽산,편의점,경기도 고양시 일산서구 가좌1로 10,37.6909697453726,126.72076497546001,,,,,,
GS25, ,수원율현,편의점,"경기도 수원시 팔달구 일월로22번길 10, (화서동)",37.285416231803204,126.980700525425,,,,,,
GS25,포천어룡점,,편의점,경기도 포천시 호국로 1359,37.8811034406414,127.186939890798,,,,,,
GS25,수지송화점,수지송화점,편의점,경기도 용인시 수지구 이현로 115,37.3122577886316,127.09109890921101,,,,,,
GS25, ,안산산재병원,편의점,경기도 안산시 상록구 구룡로 87,37.3167795748477,126.87397850539499,,,,,,
GS25,의정부금오점,,편의점,경기도 의정부시 상금로 22,37.756550746008294,127.075045798718,,,,,,
GS25,덕계현진점,덕계현진점,편의점,경기도 양주시 고덕로 159,37.80785000163689,127.060801308571,,,,,,
GS25,매송점,,편의점,경기도 성남시 분당구 판교로 430,37.4051675232864,127.120802856222,,,,,,
맥도날드,철산역점,,프렌차이즈,경기도 광명시 오리로856번길 17,37.4754851222067,126.868537762219,,,,,,
맥도날드, ,신맥수원역APOD점,프렌차이즈,"경기도 수원시 팔달구 덕영대로 924, (매산로1가)",37.2656675906019,127.00008813955601,,,,,,
이디야, ,숍,프렌차이즈,경기도 화성시 10용사로 343-2,37.199416910120895,127.055809840977,,,,,,
GS25,창현주공점,창현주공점,편의점,경기도 남양주시 화도읍 녹촌로 9,37.644649581586,127.301197472428,,,,,,
GS25, ,이천삼익,편의점,경기도 이천시 부발읍 경충대로 2253,37.2601791030651,127.476037713183,,,,,,
맥도날드,부천역점,,프렌차이즈,경기도 부천시 부천로 1,37.4840290791579,126.78263424711001,,,,,,
GS25,용인신일점,,편의점,경기도 용인시 기흥구 덕영대로2077번길 18,37.2679279878415,127.096311055447,,,,,,
맥도날드,안양점,,프렌차이즈,경기도 안양시 만안구 안양로292번길 22,37.3988648110349,126.923123746784,,,,,,
GS25,수원그랜드점,,편의점,"경기도 수원시 권선구 세지로28번길 13, (세류동)",37.2545140550462,127.016457054063,,,,,,
GS25, ,청덕대로,편의점,경기도 용인시 기흥구 구성로 264,37.29037008038971,127.138042683921,,,,,,
GS25,상동목련마을점,,편의점,경기도 부천시 신상로 91,37.4969697524481,126.747468522353,,,,,,
버거킹,광주경안점,,프렌차이즈,경기도 광주시 경안로 10,37.4101456147935,127.25954084157401,,,,,,
GS25,파주야당점,파주야당점,편의점,경기도 파주시 송학길 42-23,37.7068145549029,126.765197529646,,,,,,
GS25,교문우성,교문우성,편의점,경기도 구리시 체육관로 45,37.5885025117591,127.13735652924,,,,,,
나들가게, ,,편의점,경기도 연천군 전곡읍 전곡로 153,38.0258773835872,127.068184705107,,,,,,
GS25, ,구문천리,편의점,경기도 화성시 향남읍 발안공단로 101,37.0862767574011,126.90817115335501,,,,,,
GS25,권선세권로점,,편의점,"경기도 수원시 권선구 정조로 393-1, (장지동)",37.2446444453988,127.01397039478,,,,,,
GS25, ,시,편의점,경기도 광명시 시청로 15,37.478409208802795,126.86339459331002,,,,,,
GS25,광주선동점,광주선동점,편의점,경기도 화성시 팔탄면 동막골길 73,37.1526186737458,126.92423932532199,,,,,,
GS25, ,시,편의점,경기도 부천시 중동로254번길 27,37.5023924983586,126.770483583573,,,,,,
GS25, ,,편의점,경기도 안양시 동안구 안양판교로 42,37.3987707622045,126.979573855175,,,,,,
GS25, ,파주티오피,편의점,경기도 파주시 월롱면 엘씨디로8번길 38,37.811954381077705,126.775804595376,,,,,,
GS25,지행아이다빌점,지행아이다빌점,편의점,경기도 동두천시 이담로 96,37.88830434069121,127.058995816815,,,,,,
GS25,운정사라방점,운정사라방점,편의점,경기도 파주시 가람로21번길 25-20,37.7350555414834,126.75100118493299,,,,,,
이디야,가현초교점,가현초교점,프렌차이즈,경기도 김포시 김포한강2로 96,37.63886619687771,126.672791520683,,,,,,
나들가게, ,,편의점,경기도 성남시 중원구 광명로 183,37.439632344229004,127.147701975564,,,,,,
스타벅스, ,,프렌차이즈,경기도 김포시 김포한강11로 288-24,37.654247307349,126.683329055879,,,,,,
이디야, ,,프렌차이즈,경기도 김포시 중구로 23,37.623389088001,126.712012111898,,,,,,
GS25, ,시,편의점,경기도 용인시 수지구 현암로 165,37.3318792360763,127.12764967149799,,,,,,
스타벅스, ,,프렌차이즈,경기도 고양시 일산서구 호수로 817,37.6679823561386,126.751616105658,,,,,,
GS25,인티움점,,편의점,경기도 성남시 수정구 성남대로 1244,37.440886808721,127.128205235586,,,,,,
맥도날드,부천원종DT점,,프렌차이즈,경기도 부천시 소사로 689,37.5177698832648,126.804393607961,,,,,,
이디야, ,,프렌차이즈,경기도 김포시 사우중로 15,37.6169628675629,126.71678968626001,,,,,,
GS25,문산,,편의점,경기도 파주시 문산읍 문향로49번길 26,37.856376257103705,126.783945226234,,,,,,
GS25,능곡대림점,,편의점,경기도 고양시 덕양구 토당로42번길 21,37.620384186013496,126.821941050695,,,,,,
GS25,덕정제일점,덕정제일점,편의점,경기도 양주시 덕정길 38,37.8438731251074,127.064298593294,,,,,,
GS25,시흥로얄점,,편의점,경기도 시흥시 신천로44번길 16,37.4357003549692,126.789960016012,,,,,,
GS25, ,,편의점,경기도 시흥시 오동마을로45번길 37,37.3535441490359,126.74685328976001,,,,,,
이디야, ,,프렌차이즈,경기도 용인시 기흥구 동백중앙로 358-8,37.282057668959,127.160003543034,,,,,,
이디야,망포점,,프렌차이즈,경기도 수원시 영통구 영통로 115,37.2379109623855,127.056828883512,,,,,,
GS25,광주도곡점,광주도곡점,편의점,경기도 광주시 초월읍 경충대로 1023-18,37.3701818188282,127.300894810974,,,,,,
GS25,광주문형점,광주문형점,편의점,경기도 광주시 오포읍 고산길72번길 38-1,37.3729751978688,127.2215520492,,,,,,
GS25, ,시용인지곡,편의점,경기도 용인시 기흥구 지삼로 15,37.254964097986004,127.125493654363,,,,,,
스타벅스,정자점,정자,프렌차이즈,경기도 성남시 분당구 정자일로 166,37.364879690318,127.10629219693399,,,,,,
GS25,김포사우점,,편의점,경기도 김포시 돌문로 43,37.6188569586654,126.717799237581,,,,,,
버거킹,분당정자점,,프렌차이즈,경기도 성남시 분당구 정자일로 234,37.3711871110814,127.106273828981,,,,,,
GS25, ,수원경희,편의점,경기도 용인시 기흥구 덕영대로 1732,37.2398053310636,127.08116106433701,,,,,,
이디야,하남덕풍점,,프렌차이즈,경기도 하남시 신장로 134,37.538508486985,127.20354010285801,,,,,,
GS25, ,일산시티,편의점,경기도 고양시 일산서구 원일로 121,37.6852360633455,126.77562298926901,,,,,,
이디야,단대캠퍼스점,단대캠퍼스점,프렌차이즈,경기도 용인시 수지구 죽전로 150,37.323916584609705,127.124390611882,,,,,,
이디야,이마트흥덕점,이마트흥덕점,프렌차이즈,경기도 용인시 기흥구 흥덕중앙로 60,37.2757429154671,127.073316131901,,,,,,
GS25,팅스점,팅스점,편의점,"경기도 수원시 팔달구 갓매산로 91, (매산로1가)",37.2701417213543,127.000649103843,,,,,,
GS25,편의점,편의점,편의점,경기도 고양시 일산동구 장백로 26,37.641153830842704,126.789127923598,,,,,,
맥도날드, ,오산세교DT점,프렌차이즈,경기도 오산시 경기대로 651,37.178556823404605,127.05586681683701,,,,,,
나들가게, ,,편의점,"경기도 수원시 권선구 오목천로 15, (오목천동, 상송마을주공아파트)",37.240415454120104,126.96402898607401,,,,,,
GS25,평택성원점,평택성원점평택성원점,편의점,경기도 평택시 탄현1로 95,37.068428807128704,127.053230345586,,,,,,
GS25,안산현대점,안산현대점,편의점,경기도 안산시 상록구 감골1로 43,37.289438855837396,126.850319244241,,,,,,
GS25, ,용현브래뉴,편의점,경기도 남양주시 경춘로1286번길 35,37.6464386554385,127.239365030042,,,,,,
GS25,평택중앙점,,편의점,경기도 평택시 원평로25번길 63,36.9861045671715,127.08226679379801,,,,,,
GS25, ,웨스턴돔,편의점,경기도 고양시 일산동구 정발산로 24,37.655888808787,126.772025233806,,,,,,
GS25,하이닉스점,하이닉스점,편의점,경기도 이천시 부발읍 경충대로 2120,37.2545784259451,127.489390017276,,,,,,
GS25, ,동백역,편의점,경기도 용인시 기흥구 동백중앙로 175,37.2699593175951,127.154150844501,,,,,,
GS25, ,역곡제일,편의점,경기도 부천시 지봉로143번길 7,37.489845810850795,126.81413389183999,,,,,,
GS25, ,시기산삼성,편의점,경기도 화성시 동탄지성로 327,37.2226656836751,127.05022412558901,,,,,,
GS25,의정신곡점,의정신곡점,편의점,경기도 의정부시 동일로 472,37.730585157532296,127.05933896043899,,,,,,
GS25, ,원종IC,편의점,경기도 부천시 소사로862번길 15,37.532369258968004,126.80643473973,,,,,,
GS25,소사벌주공점,소사벌주공점,편의점,경기도 평택시 경기대로 508,37.0045616915808,127.09542680637199,,,,,,
GS25,벽적골주공점,벽적골주공점,편의점,경기도 수원시 영통구 봉영로1517번길 23,37.2485853889052,127.066615134142,,,,,,
GS25,수원영일점,,편의점,"경기도 수원시 영통구 영일로 3, (영통동)",37.248078330886,127.07549232837201,,,,,,
GS25,권선미래점,권선미래점,편의점,"경기도 수원시 권선구 효원로230번길 24, 102동  (권선동, 올림픽공원대우미래사랑)",37.261831028432105,127.026282899248,,,,,,
GS25, ,평촌한가람,편의점,경기도 안양시 동안구 부림로 113,37.3936364119805,126.96422780887801,,,,,,
GS25,용인청덕점,용인청덕점,편의점,경기도 용인시 기흥구 구성로 395,37.2931813053783,127.15173670481701,,,,,,
GS25, ,동탄세림,편의점,경기도 화성시 동탄중심상가2길 29,37.2061374750591,127.07386372815901,,,,,,
GS25,여주하리점,여주하리점,편의점,경기도 여주시 여흥로 66,37.2967890711074,127.630661525772,,,,,,
GS25, ,양곡타운,편의점,경기도 김포시 양촌읍 양곡2로60번길 28-32,37.6558517015419,126.62959459031299,,,,,,
GS25, ,의정사랑,편의점,경기도 의정부시 승지로22번길 10,37.737482383031605,127.090906070929,,,,,,
GS25,오산하나점,,편의점,경기도 오산시 궐동로 85,37.1569910831125,127.06353175733999,,,,,,
GS25, ,장항세이프,편의점,경기도 고양시 일산동구 무궁화로 43-15,37.6636485077824,126.767896462664,,,,,,
GS25, ,마석사랑,편의점,경기도 남양주시 화도읍 비룡로55번길 3-12,37.6567920851597,127.30058501286501,,,,,,
GS25,봉담주공점,봉담주공점,편의점,경기도 화성시 봉담읍 동화새터길 89,37.2184631739633,126.959720934847,,,,,,
GS25, ,용인명지대,편의점,경기도 용인시 처인구 명지로116번길 8,37.225118320627395,127.187296756093,,,,,,
GS25, ,호계엘리트,편의점,경기도 안양시 동안구 갈산로 51,37.3765394712542,126.960725665382,,,,,,
GS25, ,도곡효담,편의점,경기도 남양주시 와부읍 덕소로 269,37.5779329749128,127.22569543626601,,,,,,
GS25,전곡은대점,전곡은대점,편의점,경기도 연천군 전곡읍 전영로11번길 10,38.0306927998647,127.067576953092,,,,,,
GS25,리더스인스빌점,리더스인스빌점,편의점,경기도 남양주시 진접읍 해밀예당1로 272,37.723195529874204,127.20614949428499,,,,,,
GS25,대성리점,대성리점,편의점,경기도 가평군 청평면 경춘로 99,37.684987090231,127.37801853886101,,,,,,
GS25, ,수원한라,편의점,"경기도 수원시 팔달구 중부대로 110, (인계동)",37.2774495538836,127.028799309184,,,,,,
맥도날드,안산점,,프렌차이즈,경기도 안산시 단원구 고잔1길 16,37.318016613872,126.835149716296,,,,,,
GS25, ,안산각골,편의점,경기도 안산시 상록구 각골로1길 3,37.29413647965,126.873120579422,,,,,,
GS25,아주대,아주대,편의점,"경기도 수원시 영통구 아주로 46, (원천동)",37.2787903486566,127.04407286878,,,,,,
GS25,성남복지,,편의점,경기도 성남시 중원구 성남대로1140번길 25,37.4321656764411,127.13204650649901,,,,,,
GS25,안산주공점,,편의점,경기도 안산시 상록구 화랑로 523,37.320565244891704,126.846043065135,,,,,,
GS25,봉담그대가점,,편의점,경기도 화성시 봉담읍 와우로15번길 8,37.2158792945536,126.970291015813,,,,,,
GS25, ,성남앙뜨,편의점,경기도 성남시 중원구 광명로 115,37.436503495357,127.14118339613199,,,,,,
GS25, ,기산대우,편의점,경기도 화성시 동탄지성로 405,37.2269716851583,127.044468173364,,,,,,
GS25,화성반송점,,편의점,경기도 화성시 동탄중앙로 78,37.193293778222206,127.072331074321,,,,,,
GS25, ,동탄블루체,편의점,경기도 화성시 큰재봉길 23-4,37.2182129211184,127.079732914043,,,,,,
GS25,분당영덕점,,편의점,경기도 성남시 분당구 판교로572번길 12,37.4069950144513,127.13770240124799,,,,,,
GS25, ,,편의점,경기도 평택시 팽성읍 부용로 65,36.965680469511796,127.062106992877,,,,,,
나들가게, ,,편의점,"경기도 수원시 장안구 대평로39번길 8, (정자동, 꽃뫼노을마을대동아파트)",37.2920193399225,126.99417926665501,,,,,,
GS25,군포당정점,,편의점,경기도 군포시 한세로12번길 25,37.344182407839206,126.950562853782,,,,,,
이디야, ,,프렌차이즈,경기도 부천시 소사로 753,37.523358142897294,126.804575938671,,,,,,
이디야,안양중앙점,,프렌차이즈,경기도 안양시 만안구 안양로 283,37.397556748504,126.921967881269,,,,,,
맥도날드, ,,프렌차이즈,경기도 용인시 처인구 주북로94번길 30-1,37.2455147289819,127.242319768623,,,,,,
맥도날드,의왕오전DT점,의왕오전DT점,프렌차이즈,경기도 의왕시 경수대로 351,37.3566369636575,126.967140802675,,,,,,
GS25, ,가좌대우,편의점,경기도 고양시 일산서구 가좌3로 45,37.6884325604333,126.716953699031,,,,,,
스타벅스,구리인창점,,프렌차이즈,경기도 구리시 건원대로 67,37.6069309398692,127.138865274352,,,,,,
GS25,고양식사점,,편의점,경기도 고양시 일산동구 위시티4로 79,37.681471756385704,126.80746205563,,,,,,
맥도날드, ,,프렌차이즈,경기도 용인시 처인구 주북로94번길 30-1,37.2455147289819,127.242319768623,,,,,,
GS25, ,,편의점,경기도 구리시 장자대로111번길 12,37.5875647276825,127.14344775269899,,,,,,
GS25, ,동탄IT,편의점,경기도 화성시 동학산1길 7,37.223900931371006,127.075370604618,,,,,,
GS25,구갈점,구갈점,편의점,경기도 용인시 기흥구 관곡로64번길 18,37.2811251998346,127.112482093159,,,,,,
GS25,흥선오거리점,,편의점,경기도 의정부시 호국로 1183,37.7433658836629,127.03533817383499,,,,,,
스타벅스,단대오거리역점,,프렌차이즈,경기도 성남시 중원구 산성대로 340-1,37.4433580851162,127.154576016315,,,,,,
GS25, ,대화행복,편의점,경기도 고양시 일산서구 호수로856번길 34-2,37.671835946837895,126.74880839454599,,,,,,
GS25,문산주공점,문산주공점,편의점,경기도 파주시 문산읍 방촌로 1662,37.862461869313,126.780844996559,,,,,,
GS25, ,,편의점,경기도 이천시 장호원읍 장감로65번길 3,37.117164686534,127.629892911585,,,,,,
GS25,창현주공점,창현주공점,편의점,경기도 남양주시 화도읍 수레로 1234-13,37.6476816660521,127.30349215459101,,,,,,
GS25,고색산단,고색산단고색산단,편의점,"경기도 수원시 권선구 오목천로152번길 68, (고색동)",37.2413653979094,126.977946633036,,,,,,
스타벅스,평촌역사거리점,평촌역사거리점,프렌차이즈,경기도 안양시 동안구 시민대로 311,37.3960821601934,126.964668495517,,,,,,
탐앤탐스, ,커피,프렌차이즈,경기도 용인시 수지구 경부고속도로 400,37.3325829662516,127.10484685067499,,,,,,
GS25, ,파주운정,편의점,경기도 파주시 가람로 22,37.7336814650036,126.752272193498,,,,,,
GS25, ,탄현제니스,편의점,경기도 고양시 일산서구 일현로 97-11,37.6950605265679,126.76214957853,,,,,,
맥도날드,수원성균관대점,수원성균관대점,프렌차이즈,"경기도 수원시 장안구 서부로 2127, (율전동)",37.2984899938794,126.97121872183901,,,,,,
GS25, ,용인서천마을,편의점,경기도 용인시 기흥구 서천서로 125,37.2354577872485,127.070225614115,,,,,,
이디야,의정부가능동SK점,,프렌차이즈,경기도 의정부시 신촌로 18-7,37.7498666323102,127.03697861003201,,,,,,
스타벅스,수원트레이더스점,,프렌차이즈,경기도 수원시 영통구 삼성로 2,37.246062945534604,127.04857798251498,,,,,,
탐앤탐스, ,,프렌차이즈,경기도 화성시 동탄반석로 172,37.2038804590496,127.07216772164,,,,,,
GS25,봉담동화점,봉담동화점,편의점,경기도 화성시 봉담읍 동화북길 23,37.2229630223385,126.95396879464501,,,,,,
GS25,동탄월드점,동탄월드점,편의점,경기도 화성시 동탄중앙로 189,37.20203622438979,127.06681689687099,,,,,,
스타벅스, ,커피수원광교,프렌차이즈,경기도 수원시 영통구 센트럴타운로 85,37.290120339692294,127.05120391333901,,,,,,
GS25,분당정자역점,분당정자역점분당정자역점,편의점,경기도 성남시 분당구 성남대로 345,37.3669356983761,127.107690304705,,,,,,
GS25,고양대로점,,편의점,경기도 고양시 덕양구 고양대로 1215,37.663154960697604,126.823690894973,,,,,,
GS25,식사중앙공원점,,편의점,경기도 고양시 일산동구 위시티2로11번길 14-4,37.676970766207496,126.812329312608,,,,,,
GS25, ,,편의점,경기도 용인시 기흥구 평촌2로1번길 35-1,37.27916271416821,127.153337445782,,,,,,
GS25, ,,편의점,경기도 성남시 중원구 둔촌대로 181,37.429828850641705,127.13902243158998,,,,,,
맥도날드,부천역곡역DT점,부천역곡역DT점,프렌차이즈,경기도 부천시 경인로 487,37.4836813075339,126.809516358677,,,,,,
GS25,포천무봉점,,편의점,경기도 포천시 소흘읍 호국로 224,37.793993382851895,127.126513815387,,,,,,
맥도날드,한국지점,,프렌차이즈,경기도 성남시 중원구 둔촌대로 121-4,37.4293039928684,127.132554105439,,,,,,
GS25,식사자이점,,편의점,경기도 고양시 일산동구 위시티4로 46,37.6840920690309,126.81444920929701,,,,,,
GS25,정왕진솔점,,편의점,경기도 시흥시 봉우재로61번길 21,37.3488205640314,126.744110168166,,,,,,
GS25, ,식사도서관,편의점,경기도 고양시 일산동구 위시티2로 43-27,37.6762266961984,126.81449502820101,,,,,,
GS25,야당명동점,,편의점,경기도 파주시 경의로 1080,37.7137961268464,126.759932516502,,,,,,
GS25, ,부천다온하브,편의점,경기도 부천시 부일로 429,37.48706213816371,126.777937694557,,,,,,
스타벅스,판교하이펙스,,프렌차이즈,경기도 성남시 분당구 판교역로 230,37.401278507530606,127.11044579092,,,,,,
GS25, ,고림빌리지,편의점,경기도 용인시 처인구 임원로 26-1,37.251603108484,127.230659407004,,,,,,
GS25, ,풍동달맞이,편의점,경기도 고양시 일산동구 숲속마을1로 137,37.6734434335491,126.800324415258,,,,,,
GS25, ,,편의점,경기도 용인시 수지구 문인로 56-1,37.333338980132496,127.09643085514799,,,,,,
나들가게, ,,편의점,경기도 성남시 중원구 제일로35번길 44,37.4317729705083,127.132559513242,,,,,,
GS25, ,,편의점,경기도 김포시 김포한강2로104번길 4,37.6391395889615,126.672265464055,,,,,,
GS25, ,고촌현대,편의점,경기도 김포시 고촌읍 수기로 67-53,37.59641190960971,126.767624537507,,,,,,
GS25,선부광장점,,편의점,경기도 안산시 단원구 선부광장1로 118,37.3327716337573,126.812048745886,,,,,,
GS25,행신최고,,편의점,경기도 고양시 덕양구 중앙로558번길 16-16,37.6236388770061,126.836672852266,,,,,,
맥도날드,역곡DT점,,프렌차이즈,경기도 부천시 경인로 487,37.4836813075339,126.809516358677,,,,,,
GS25,교하행복점,,편의점,경기도 파주시 청석로 266,37.7255081511421,126.717732253498,,,,,,
GS25,행신센트럴점,,편의점,경기도 고양시 덕양구 충장로 2,37.613120107106,126.834458175422,,,,,,
GS25, ,,편의점,경기도 수원시 영통구 영통로130번길 13,37.2396154801716,127.057010515946,,,,,,
GS25,광명시청로점,광명시청로점,편의점,경기도 광명시 시청로 99,37.485083051645205,126.86590544591299,,,,,,
GS25, ,,편의점,경기도 고양시 덕양구 도래울3로 18,37.63047116868611,126.87125623968599,,,,,,
이디야,의정부동부점,,프렌차이즈,경기도 의정부시 평화로 545,37.740685997235,127.04704810615401,,,,,,
스타벅스, ,동수원,프렌차이즈,"경기도 수원시 팔달구 중부대로 161, (우만동)",37.2781130343329,127.03389894210699,,,,,,
스타벅스,경기광주점,경기광주점,프렌차이즈,경기도 광주시 광주대로 35,37.409735243374904,127.26020005832599,,,,,,
GS25,수원방글,,편의점,"경기도 수원시 장안구 정조로946번길 8, (영화동)",37.2920295867468,127.012517707279,,,,,,
스타벅스, ,커피분당서울대병원4층,프렌차이즈,경기도 성남시 분당구 구미로173번길 82,37.3520220371583,127.124470630558,,,,,,
스타벅스,수지풍덕천점,,프렌차이즈,경기도 용인시 수지구 수지로296번길 51-11,37.3222016808726,127.095266677789,,,,,,
GS25,분당정자점,,편의점,경기도 성남시 분당구 정자일로 190,37.3671053296626,127.10628837814899,,,,,,
이디야,진접장현리점,,프렌차이즈,경기도 남양주시 진접읍 장현로 77,37.7176073931042,127.18086950741801,,,,,,
스타벅스, ,판교하이펙스,프렌차이즈,경기도 성남시 분당구 판교역로 240,37.4020984979811,127.110447392748,,,,,,
GS25, ,,편의점,경기도 하남시 신장로 142,37.5388820188888,127.20281193235,,,,,,
GS25,능곡점,능곡점,편의점,경기도 고양시 덕양구 토당로 110,37.624669776371896,126.818010484749,,,,,,
스타벅스,신세계죽전점,,프렌차이즈,경기도 용인시 수지구 포은대로 536,37.3249933296323,127.108096227685,,,,,,
GS25,동두천점,,편의점,경기도 동두천시 이담로 72,37.8880843009958,127.056270125414,,,,,,
이디야,안양덕천점,,프렌차이즈,경기도 안양시 만안구 덕천로48번길 48,37.3857224682616,126.938533752375,,,,,,
스타벅스,부천신중동역점,,프렌차이즈,경기도 부천시 길주로 281,37.5037910259875,126.77413636305,,,,,,
스타벅스, ,야탑글라스,프렌차이즈,경기도 성남시 분당구 성남대로916번길 11,37.4108480040811,127.129829942146,,,,,,
스타벅스,오산아이씨디티점,,프렌차이즈,경기도 오산시 원동로 74,37.142308336914795,127.076848689491,,,,,,
버거킹,상록점,,프렌차이즈,경기도 성남시 분당구 정자로 88,37.363156754162105,127.11442947165001,,,,,,
이디야,안산한도병원점,,프렌차이즈,경기도 안산시 단원구 선부광장로 95,37.3331830582522,126.80816046930201,,,,,,
이디야, ,,프렌차이즈,경기도 고양시 일산서구 중앙로 1376,37.667779644899,126.76660401480801,,,,,,
GS25,용인스마트점,,편의점,경기도 용인시 처인구 진덕로 28,37.238322503593004,127.21716834847,,,,,,
이디야,시흥목감점,,프렌차이즈,경기도 시흥시 동서로 1086,37.3857594809915,126.860221362339,,,,,,
스타벅스,광명하안점,,프렌차이즈,경기도 광명시 범안로 1060,37.462598327452795,126.880646185624,,,,,,
스타벅스,화정역,,프렌차이즈,경기도 고양시 덕양구 화신로260번길 57,37.6336102001311,126.832721991985,,,,,,
스타벅스,산본역점,,프렌차이즈,경기도 군포시 번영로 497,37.3583097992139,126.93228249093,,,,,,
스타벅스,부천중동점,,프렌차이즈,경기도 부천시 신흥로 161,37.4979912682125,126.777024513246,,,,,,
맥도날드,정발산점,,프렌차이즈,경기도 고양시 일산동구 중앙로1275번길 38-5,37.6594575742188,126.7703684297,,,,,,
이디야,중산점,,프렌차이즈,경기도 고양시 일산동구 중산로 247,37.694160344746706,126.780385932621,,,,,,
스타벅스,수내로점,,프렌차이즈,경기도 성남시 분당구 수내로46번길 12,37.380392525885604,127.11658679513201,,,,,,
탐앤탐스,화정프리머스점,,프렌차이즈,경기도 고양시 덕양구 화중로104번길 28,37.635713734525396,126.833142281341,,,,,,
이디야, ,,프렌차이즈,경기도 양주시 장흥면 가마골로 4,37.7192155273946,126.97518291866001,,,,,,
나들가게, ,,편의점,경기도 평택시 지산2로 96,37.079960537474,127.060836071024,,,,,,
이디야, ,,프렌차이즈,경기도 의왕시 포일세거리로 21,37.3970976461961,126.986192264431,,,,,,
스타벅스,부천역사,부천역사,프렌차이즈,경기도 부천시 부천로 1,37.4840290791579,126.78263424711001,,,,,,
스타벅스,일산백마점,,프렌차이즈,경기도 고양시 일산동구 일산로 237,37.6571088791044,126.788064183267,,,,,,
탐앤탐스,블랙유기농테마파크점,,프렌차이즈,경기도 남양주시 조안면 북한강로 881,37.5957023430614,127.33836870997601,,,,,,
이디야,계원예대점,,프렌차이즈,경기도 의왕시 계원대학로 40,37.378977716389606,126.975799801259,,,,,,
GS25,수원애경점,,편의점,"경기도 수원시 팔달구 덕영대로 924, (매산로1가)",37.2656675906019,127.00008813955601,,,,,,
이디야,산본역사점,,프렌차이즈,경기도 군포시 번영로 504,37.3580925043367,126.93316604508999,,,,,,
스타벅스,수원시청점,,프렌차이즈,"경기도 수원시 권선구 효원로 274, (권선동)",37.2614209425035,127.031214826476,,,,,,
이디야, ,,프렌차이즈,경기도 성남시 중원구 광명로 373,37.4468616977582,127.16704754951701,,,,,,
이디야,가평점,,프렌차이즈,경기도 가평군 가평읍 가화로 104,37.8289466714644,127.514300830716,,,,,,
스타벅스,수원망포역점,,프렌차이즈,경기도 수원시 영통구 영통로 195,37.2451745362739,127.05579157160601,,,,,,
이디야,구운동점,,프렌차이즈,"경기도 수원시 권선구 구운중로4번길 20, (구운동)",37.275551112060796,126.97464311277001,,,,,,
GS25,용인태성점,용인태성점,편의점,경기도 용인시 처인구 백옥대로 1059,37.2301013872555,127.209928314469,,,,,,
스타벅스,시화로데오점,,프렌차이즈,경기도 시흥시 중심상가2길 20-5,37.3446575868247,126.73732894675899,,,,,,
이디야, ,,프렌차이즈,"경기도 수원시 영통구 봉영로1759번길 7, (영통동)",37.265921078873504,127.081418851877,,,,,,
스타벅스,양주고읍점,,프렌차이즈,경기도 양주시 고읍남로 20,37.79465939687479,127.079089929697,,,,,,
이디야,에스쁘레쏘서현점,,프렌차이즈,경기도 성남시 분당구 황새울로342번길 11,37.386220946998,127.123644006498,,,,,,
스타벅스,안양1번가점,,프렌차이즈,경기도 안양시 만안구 안양로292번길 36,37.39918538578979,126.92369516915501,,,,,,
스타벅스,화정점,,프렌차이즈,경기도 고양시 덕양구 화신로272번길 57,37.633534354678204,126.83143160384199,,,,,,
이디야,동탄능동점,,프렌차이즈,경기도 화성시 동탄원천로 360,37.2184338561841,127.05740945798401,,,,,,
이디야, ,,프렌차이즈,경기도 고양시 일산동구 정발산로 24,37.655888808787,126.772025233806,,,,,,
이디야,산본점,,프렌차이즈,경기도 군포시 산본로343번길 23,37.359860223831504,126.930352783622,,,,,,
버거킹,부천중동점,,프렌차이즈,경기도 부천시 신흥로 163,37.498216137832706,126.77698691851002,,,,,,
스타벅스, ,김포풍무DT,프렌차이즈,경기도 김포시 풍무로 45-1,37.599955990565796,126.72050182595,,,,,,
이디야, ,,프렌차이즈,경기도 고양시 덕양구 고양대로1384번길 15,37.6533181915556,126.837558548185,,,,,,
맥도날드, ,고양맥드라이브점,프렌차이즈,경기도 고양시 덕양구 호국로 1699,37.7028247734818,126.90391969547,,,,,,
맥도날드, ,수원세류DT점,프렌차이즈,"경기도 수원시 권선구 경수대로 195, (세류동)",37.2446798773761,127.017148436022,,,,,,
맥도날드,진접DT점,,프렌차이즈,경기도 남양주시 진접읍 금강로 1467,37.721984458124396,127.189714514433,,,,,,
버거킹, ,수지대경GS,프렌차이즈,경기도 용인시 수지구 신수로 781,37.3392860706321,127.10234092143601,,,,,,
스타벅스,산본점,,프렌차이즈,경기도 군포시 산본로343번길 9,37.3606116540182,126.93174189577499,,,,,,
버거킹,광명철산점,,프렌차이즈,경기도 광명시 철산로 24,37.4759849555112,126.868982458458,,,,,,
버거킹, ,,프렌차이즈,경기도 안산시 단원구 선부광장로 33,37.335876687719896,126.81079238171002,,,,,,
나들가게, ,,편의점,경기도 부천시 역곡로46번길 48,37.489838465584896,126.812505679978,,,,,,
맥도날드, ,용인마북DT점,프렌차이즈,경기도 용인시 기흥구 용구대로 2420,37.3025628115152,127.10657895041,,,,,,
이디야,판교점,,프렌차이즈,경기도 성남시 분당구 판교역로 182,37.39693231050921,127.11004539520799,,,,,,
스타벅스,평촌로데오점,,프렌차이즈,경기도 안양시 동안구 관평로 182,37.3929296814883,126.960702698023,,,,,,
이디야,망포역점,,프렌차이즈,경기도 수원시 영통구 영통로 195,37.2451745362739,127.05579157160601,,,,,,
맥도날드,동두천지행점,,프렌차이즈,경기도 동두천시 평화로 2290,37.892156132925294,127.057309605022,,,,,,
나들가게, ,,편의점,경기도 광명시 소하로 55,37.4500562160383,126.885466892095,,,,,,
GS25,처인구청점,처인구청점,편의점,경기도 용인시 처인구 금령로56번길 5,37.2344130406382,127.202512799452,,,,,,
이디야,고양관산점,,프렌차이즈,경기도 고양시 덕양구 통일로 774,37.6880268330754,126.864534093139,,,,,,
스타벅스,주엽사거리점,,프렌차이즈,경기도 고양시 일산서구 중앙로 1456,37.6715467476635,126.75895834214701,,,,,,
이디야,의정부신곡점,,프렌차이즈,경기도 의정부시 추동로19번길 21,37.7439573021436,127.05720677957198,,,,,,
맥도날드,수원GS점,,프렌차이즈,"경기도 수원시 권선구 권선로 684, (권선동)",37.2590716654635,127.02603658473801,,,,,,
버거킹,부천원종점,,프렌차이즈,경기도 부천시 소사로 713,37.5196452213574,126.804510743914,,,,,,
이디야,부천먼마루점,,프렌차이즈,경기도 부천시 소사로 814,37.5286513104736,126.805871735133,,,,,,
맥도날드, ,북수원홈플러스,프렌차이즈,"경기도 수원시 장안구 경수대로 930, (조원동)",37.302757465451,127.00880170997101,,,,,,
이디야,구리교문동점,,프렌차이즈,경기도 구리시 경춘로 176,37.600414054537204,127.13485212196899,,,,,,
스타벅스,일산동구청점,,프렌차이즈,경기도 고양시 일산동구 정발산로 38,37.6567020093843,126.77311114669901,,,,,,
스타벅스,수원성균관대점,,프렌차이즈,"경기도 수원시 장안구 서부로 2131, (율전동)",37.298961539019,126.97156195882499,,,,,,
이디야, ,,프렌차이즈,경기도 안산시 단원구 원선1로 37,37.326221181745,126.802245190156,,,,,,
스타벅스,분당구청점,,프렌차이즈,경기도 성남시 분당구 분당로 43,37.3840602572395,127.120258905034,,,,,,
스타벅스,오산시청점,,프렌차이즈,경기도 오산시 성호대로 116,37.1485504490323,127.07420621303001,,,,,,
GS25, ,,편의점,경기도 안양시 동안구 시민대로 325,37.396112925630604,126.966124983447,,,,,,
이디야,봉일천점,,프렌차이즈,경기도 파주시 조리읍 봉천로 34-1,37.7438081948314,126.80793755318899,,,,,,
버거킹,광교아브뉴프랑점,,프렌차이즈,경기도 수원시 영통구 센트럴타운로 85,37.291556147104295,127.050464070999,,,,,,
이디야,경복대점,,프렌차이즈,경기도 남양주시 진접읍 경복대로 426,37.733787560032,127.212253585053,,,,,,
스타벅스,동수원DT점,,프렌차이즈,"경기도 수원시 팔달구 중부대로 157, (우만동)",37.278137118976495,127.03353779295901,,,,,,
이디야,능곡점,,프렌차이즈,경기도 고양시 덕양구 지도로 100,37.6260815313454,126.82403752511298,,,,,,
스타벅스,서현역점,,프렌차이즈,경기도 성남시 분당구 서현로210번길 20,37.385854297475795,127.12402092583099,,,,,,
버거킹,분당야탑점,,프렌차이즈,경기도 성남시 분당구 성남대로916번길 11,37.4108480040811,127.129829942146,,,,,,
버거킹,분당서현점,,프렌차이즈,경기도 성남시 분당구 분당로53번길 19,37.3845159275885,127.1221619768,,,,,,
이디야,포천신읍점,,프렌차이즈,경기도 포천시 중앙로 134,37.8979515229647,127.20396928523998,,,,,,
스타벅스,용인기흥구청점,,프렌차이즈,경기도 용인시 기흥구 구갈로 71-18,37.2826619109289,127.110727384765,,,,,,
이디야, ,,프렌차이즈,경기도 김포시 사우중로 52,37.6193961759532,126.719330493625,,,,,,
탐앤탐스,안산점,,프렌차이즈,경기도 안산시 단원구 광덕대로 154,37.310160717624704,126.83072474056401,,,,,,
탐앤탐스,죽전카페거리점,,프렌차이즈,경기도 용인시 기흥구 죽전로 11,37.3207355556558,127.109872801758,,,,,,
스타벅스,수원인계점,,프렌차이즈,"경기도 수원시 팔달구 권광로 199, (인계동)",37.2655346685802,127.03289838935899,,,,,,
스타벅스,뉴코아야탑점,,프렌차이즈,경기도 성남시 분당구 야탑로81번길 11,37.4109297153589,127.12746808049,,,,,,
버거킹,일산산들SK점,,프렌차이즈,경기도 고양시 일산서구 고양대로 717,37.68351625562129,126.775730620796,,,,,,
나들가게, ,,편의점,"경기도 수원시 팔달구 세지로 295, (지동)",37.2774697717891,127.02358945188801,,,,,,
GS25,안산삼익점,,편의점,경기도 안산시 단원구 새뿔길 55,37.3374045236186,126.777692223152,,,,,,
이디야,수원팔달로점,,프렌차이즈,"경기도 수원시 팔달구 정조로 754, (팔달로3가)",37.2754321618062,127.016917900003,,,,,,
버거킹,부천세이브존점,,프렌차이즈,경기도 부천시 길주로 105,37.5063838048755,126.75412001693,,,,,,
이디야,시흥능곡점,,프렌차이즈,경기도 시흥시 장현능곡로 198,37.36906569117689,126.81198471761101,,,,,,
이디야,이마트화정점,,프렌차이즈,경기도 고양시 덕양구 백양로 79,37.6326796704319,126.833382328198,,,,,,
이디야,신천점,,프렌차이즈,경기도 시흥시 수인로 3372,37.441120990925995,126.78433549997601,,,,,,
이디야,이천로데오점,,프렌차이즈,경기도 이천시 영창로 202-8,37.2806891109341,127.44455687830099,,,,,,
이디야,부천북부역점,,프렌차이즈,경기도 부천시 부일로 457,37.4863275716999,126.780968701465,,,,,,
스타벅스,광교신대역점,,프렌차이즈,경기도 용인시 수지구 광교마을로 41,37.2990124975391,127.069161875958,,,,,,
스타벅스,수원매산점,,프렌차이즈,"경기도 수원시 팔달구 매산로 11, (매산로1가)",37.2674378523607,127.00271427825899,,,,,,
이디야,수원디지털엠파이어2점,,프렌차이즈,경기도 수원시 영통구 신원로 88,37.247455142690896,127.050262510626,,,,,,
이디야,동백역점,,프렌차이즈,경기도 용인시 기흥구 동백중앙로 177,37.2702808668221,127.15375261478701,,,,,,
스타벅스,송내역점,,프렌차이즈,경기도 부천시 부일로 204,37.4883289485642,126.75258813734,,,,,,
맥도날드,의정부역점,,프렌차이즈,경기도 의정부시 행복로 11,37.7399768035116,127.04848679546998,,,,,,
나들가게, ,,편의점,"경기도 수원시 팔달구 권선로 477, (매산로2가, 대한대우)",37.2645596274396,127.00333849491699,,,,,,
이디야, ,,프렌차이즈,경기도 고양시 일산서구 경의로 672,37.682126522603895,126.769461467572,,,,,,
맥도날드, ,중산DT점,프렌차이즈,경기도 고양시 일산동구 고양대로 745,37.6828090532612,126.778780570993,,,,,,
스타벅스,라페스타광장점,,프렌차이즈,경기도 고양시 일산동구 중앙로1275번길 38-9,37.659680543564704,126.770149415182,,,,,,
이디야,의왕역점,,프렌차이즈,경기도 의왕시 부곡중앙로 27,37.321245476632,126.952077844324,,,,,,
나들가게, ,,편의점,경기도 부천시 경인로160번길 88,37.479953130107106,126.77273952531,,,,,,
GS25,중동복사골점,,편의점,경기도 부천시 중동로 161,37.4942735314874,126.76696407333999,,,,,,
탐앤탐스, ,,프렌차이즈,경기도 성남시 분당구 성남대로 165,37.350756869622295,127.108299453743,,,,,,
이디야,구일산점,,프렌차이즈,경기도 고양시 일산서구 원일로 117,37.685447441876896,126.775154679363,,,,,,
스타벅스, ,커피마장휴게소,프렌차이즈,경기도 이천시 마장면 중부고속도로 82,37.262744409998,127.40847571045401,,,,,,
나들가게, ,,편의점,경기도 시흥시 오이도로157번길 10,37.346612134665705,126.689217022309,,,,,,
버거킹,금촌역점,,프렌차이즈,경기도 파주시 중앙로 328,37.7648639986025,126.774504300683,,,,,,
스타벅스,백석점,,프렌차이즈,경기도 고양시 일산동구 중앙로 1059,37.6439163563375,126.786148315475,,,,,,
이디야, ,,프렌차이즈,경기도 군포시 산본로343번길 23,37.359860223831504,126.930352783622,,,,,,
버거킹,산본점,,프렌차이즈,경기도 군포시 산본로 382,37.364356589539796,126.93035669397601,,,,,,
이디야,대화마을점,,프렌차이즈,경기도 고양시 일산서구 대화로 138,37.6709103068794,126.735516426311,,,,,,
이디야,정자역점,,프렌차이즈,경기도 성남시 분당구 정자일로 177,37.366143443261,127.10539662597601,,,,,,
이디야,별내북부점,,프렌차이즈,경기도 남양주시 덕송2로10번길 27-12,37.667313627881704,127.1162462034,,,,,,
스타벅스,판교역로점,,프렌차이즈,경기도 성남시 분당구 판교역로192번길 14,37.397374980418604,127.111395465133,,,,,,
이디야, ,,프렌차이즈,경기도 부천시 길주로 307,37.5034936719449,126.77674249125401,,,,,,
이디야,분당효자촌점,,프렌차이즈,경기도 성남시 분당구 돌마로486번길 6,37.3770964066623,127.133889656856,,,,,,
이디야,남양주양지점,,프렌차이즈,경기도 남양주시 오남읍 진건오남로 778,37.69716498107179,127.20486226253,,,,,,
이디야,양주덕계중앙점,,프렌차이즈,경기도 양주시 평화로 1491,37.8233567094951,127.049609535631,,,,,,
스타벅스,죽전점,,프렌차이즈,경기도 용인시 수지구 현암로 140,37.3314974163333,127.12475401039801,,,,,,
맥도날드,평내DT점,,프렌차이즈,경기도 남양주시 경춘로 1273,37.6480220364574,127.23480469078899,,,,,,
이디야, ,,프렌차이즈,경기도 광명시 소하로 97,37.4465873861951,126.88453513444999,,,,,,
맥도날드, ,마장휴게소점,프렌차이즈,경기도 이천시 마장면 중부고속도로 82,37.262744409998,127.40847571045401,,,,,,
이디야, ,,프렌차이즈,경기도 남양주시 경춘로 433,37.608821334939705,127.161133314827,,,,,,
스타벅스, ,오리역삼거리,프렌차이즈,경기도 성남시 분당구 성남대로 45,37.340043601820504,127.10838098932899,,,,,,
이디야,주엽역점,,프렌차이즈,경기도 고양시 일산서구 중앙로 1437,37.6700490505595,126.760479515497,,,,,,
맥도날드,김포장기DT점,김포장기DT점,프렌차이즈,경기도 김포시 김포한강1로 77-40,37.6463114510149,126.67065338773399,,,,,,
맥도날드, ,안양비산에스케이,프렌차이즈,경기도 안양시 동안구 경수대로 839,37.393588678835,126.941539836326,,,,,,
이디야,원흥도내점,,프렌차이즈,경기도 고양시 덕양구 도래울로 34,37.6289672300487,126.86851472296499,,,,,,
이디야,일산가좌마을점,,프렌차이즈,경기도 고양시 일산서구 가좌4로 2,37.6861213153285,126.71983922504299,,,,,,
탐앤탐스,탐스커버리화성행궁점,,프렌차이즈,"경기도 수원시 팔달구 정조로 820, (팔달로1가)",37.281271137899104,127.016909618058,,,,,,
이디야,부천강남시장점,,프렌차이즈,경기도 부천시 옥산로 158,37.5077035816079,126.780428875483,,,,,,
스타벅스,강남대점,,프렌차이즈,경기도 용인시 기흥구 강남로 3,37.2709903107511,127.126131428473,,,,,,
스타벅스,정자상떼뷰점,,프렌차이즈,경기도 성남시 분당구 정자일로213번길 18,37.3702988413496,127.10558437802099,,,,,,
스타벅스,김포장기점,,프렌차이즈,경기도 김포시 김포한강4로 117,37.6441906147977,126.66794907612899,,,,,,
이디야, ,,프렌차이즈,경기도 고양시 덕양구 충장로282번길 94-51,37.63859451672779,126.843872414622,,,,,,
스타벅스,동탄광장점,,프렌차이즈,경기도 화성시 동탄지성로 17,37.204609311229206,127.072034880212,,,,,,
이디야,분당아름마을점,,프렌차이즈,경기도 성남시 분당구 판교로 443,37.4057253160881,127.123111908647,,,,,,
이디야,마석점,,프렌차이즈,경기도 남양주시 화도읍 비룡로 58,37.6572237434508,127.30196366167601,,,,,,
스타벅스,서현점,,프렌차이즈,경기도 성남시 분당구 황새울로360번길 19,37.385886437451504,127.12592898259899,,,,,,
스타벅스, ,정자아데나,프렌차이즈,경기도 성남시 분당구 성남대로 275,37.3608797851082,127.10760396940701,,,,,,
맥도날드,부천북부역점,,프렌차이즈,경기도 부천시 부천로 11,37.4855479665982,126.782259078082,,,,,,
스타벅스,부천상동점,,프렌차이즈,경기도 부천시 상동로 87,37.5052123044618,126.752397733593,,,,,,
이디야,천천점,,프렌차이즈,"경기도 수원시 장안구 만석로19번길 25-5, (천천동)",37.2961955440583,126.98307029543001,,,,,,
스타벅스,미금역점,,프렌차이즈,경기도 성남시 분당구 돌마로 43,37.3503479964361,127.10665636594801,,,,,,
스타벅스,분당정자점,분당정자분당정자점,프렌차이즈,경기도 성남시 분당구 성남대로 393,37.3716627072825,127.10720528516501,,,,,,
이디야,오리역점,,프렌차이즈,경기도 성남시 분당구 성남대로43번길 10,37.3400212430051,127.107805687887,,,,,,
이디야,원흥중앙점,,프렌차이즈,경기도 고양시 덕양구 도래울로 105,37.6350682160389,126.871447288288,,,,,,
나들가게, ,한솔마트,편의점,경기도 시흥시 호현로22번길 23,37.4407935594463,126.786668682885,,,,,,
스타벅스,안산문화광장점,,프렌차이즈,경기도 안산시 단원구 광덕대로 154,37.310160717624704,126.83072474056401,,,,,,
스타벅스,수원이비스점,,프렌차이즈,"경기도 수원시 팔달구 권광로 132, (인계동)",37.259213962314,127.03129946049499,,,,,,
이디야, ,,프렌차이즈,경기도 부천시 상일로122번길 46,37.489340715714704,126.75539823471,,,,,,
스타벅스,판교봇들마을점,,프렌차이즈,경기도 성남시 분당구 판교로 372,37.4037055404319,127.11566934642201,,,,,,
이디야,파주운정점,,프렌차이즈,경기도 파주시 와석순환로 78,37.711023654064604,126.75079225953002,,,,,,
맥도날드,행신점,,프렌차이즈,경기도 고양시 덕양구 충경로 38,37.6152299116239,126.83368899926201,,,,,,
GS25, ,성남오거리,편의점,경기도 성남시 중원구 산성대로372번길 17,37.445020175578996,127.158942256945,,,,,,
GS25, ,화성남양,편의점,경기도 화성시 남양읍 남양시장로24번길 3-3,37.2081582070431,126.812529276595,,,,,,
GS25, ,대화다산,편의점,경기도 고양시 일산서구 중앙로 1568,37.676367432270105,126.747904765825,,,,,,
이디야,모란역점,,프렌차이즈,경기도 성남시 중원구 광명로 8,37.4328182936794,127.130118048677,,,,,,
버거킹,이마트서수원점,,프렌차이즈,"경기도 수원시 권선구 수인로 291, (구운동)",37.2826215528165,126.970137925629,,,,,,
맥도날드, ,양주휴게소DT점,프렌차이즈,경기도 양주시 장흥면 서울외곽순환고속도로 58,37.6791924415625,126.91576283113599,,,,,,
이디야,강남대점,,프렌차이즈,경기도 용인시 기흥구 강남로 9,37.271535497744104,127.126745273615,,,,,,
이디야,이천이마트점,,프렌차이즈,경기도 이천시 이섭대천로 1440-50,37.2939757964133,127.459110564524,,,,,,
GS25,영통방죽점,영통방죽점,편의점,경기도 수원시 영통구 영통로213번길 24,37.2464974858711,127.055583448603,,,,,,
버거킹,수원시청점,,프렌차이즈,"경기도 수원시 팔달구 권광로 163, (인계동)",37.262425382575294,127.03173183618601,,,,,,
스타벅스,용인중부대로점,,프렌차이즈,경기도 용인시 기흥구 중부대로 56,37.2670952709518,127.074831448715,,,,,,
스타벅스,판교브릿지타워점,,프렌차이즈,경기도 성남시 분당구 판교로227번길 6,37.4028789753799,127.099278683706,,,,,,
버거킹, ,평촌금성GS,프렌차이즈,경기도 안양시 동안구 시민대로 325,37.396112925630604,126.966124983447,,,,,,
탐앤탐스,정자점,,프렌차이즈,경기도 성남시 분당구 성남대로331번길 3-3,37.3653227383771,127.107686826764,,,,,,
이디야,진접센트레빌점,,프렌차이즈,경기도 남양주시 진접읍 부평로 32,37.739936166273104,127.198085197628,,,,,,
스타벅스,하남시청점,,프렌차이즈,경기도 하남시 대청로 34,37.54051991029171,127.215966129307,,,,,,
스타벅스,안양역점,,프렌차이즈,경기도 안양시 만안구 장내로149번길 53,37.400315800541,126.922165542127,,,,,,
이디야,시흥월곶점,,프렌차이즈,경기도 시흥시 월곶중앙로 59,37.388534357832,126.738603463253,,,,,,
이디야,파주금촌로터리점,,프렌차이즈,경기도 파주시 번영로 18-1,37.7578675303295,126.77145350917,,,,,,
스타벅스, ,이천터미널,프렌차이즈,경기도 이천시 중리천로 84,37.278219380447204,127.446334174098,,,,,,
GS25,시화공고점,,편의점,경기도 시흥시 정왕천로 395,37.3433691576837,126.750915988324,,,,,,
스타벅스,파주운정점,,프렌차이즈,경기도 파주시 와석순환로 135,37.7120285598793,126.744458195993,,,,,,
버거킹, ,동두천DT,프렌차이즈,경기도 동두천시 평화로2261번길 2,37.8899956806047,127.05642763198799,,,,,,
스타벅스,이천하이닉스점,,프렌차이즈,경기도 이천시 부발읍 경충대로 2100,37.252571373959796,127.48995592847601,,,,,,
버거킹,수원망포점,,프렌차이즈,경기도 수원시 영통구 영통로 108,37.2380999544939,127.057931022535,,,,,,
스타벅스,용인마북DT점,,프렌차이즈,경기도 용인시 기흥구 용구대로 2330,37.2946435115567,127.110338230918,,,,,,
스타벅스,역곡역DT점,,프렌차이즈,경기도 부천시 경인로 485,37.4835078586476,126.80929297345699,,,,,,
탐앤탐스,안산대학교점,,프렌차이즈,경기도 안산시 상록구 안산대학로 155,37.3081590273134,126.877107723859,,,,,,
이디야,기흥구청점,,프렌차이즈,경기도 용인시 기흥구 관곡로 92,37.280492999593,127.11349314381201,,,,,,
이디야,행신중앙점,,프렌차이즈,경기도 고양시 덕양구 행신로 131-11,37.620316437164,126.83052843208598,,,,,,
이디야,의왕오전점,,프렌차이즈,경기도 의왕시 원골로 14,37.3585624208923,126.967848153139,,,,,,
맥도날드, ,이천DT점,프렌차이즈,경기도 이천시 경충대로 2578,37.275300405535205,127.44646831315501,,,,,,
맥도날드,마석DT점,,프렌차이즈,경기도 남양주시 화도읍 비룡로 89,37.6600101050323,127.30232293062001,,,,,,
맥도날드, ,수원정자DT점,프렌차이즈,"경기도 수원시 장안구 수성로 267, (정자동)",37.290324866846206,127.001577687481,,,,,,
이디야,수원메르디앙점,,프렌차이즈,"경기도 수원시 팔달구 경수대로604번길 19, (우만동)",37.2799353105694,127.03194735928301,,,,,,
이디야, ,,프렌차이즈,"경기도 수원시 장안구 송원로 69, (송죽동)",37.301206733817395,127.008697985137,,,,,,
GS25,금촌2동귀빈점,금촌2동귀빈점,편의점,경기도 파주시 쇠재로 133,37.7532575769634,126.776953983,,,,,,
이디야,용인구성점,,프렌차이즈,경기도 용인시 기흥구 구성로 94,37.2939648217139,127.119594776658,,,,,,
버거킹,송죽SK점,,프렌차이즈,"경기도 수원시 장안구 경수대로 992, (송죽동)",37.3054425454041,127.003419583993,,,,,,
GS25,시수원한라점,,편의점,"경기도 수원시 팔달구 중부대로 110, (인계동)",37.2774495538836,127.028799309184,,,,,,
GS25, ,기흥고매,편의점,경기도 용인시 기흥구 동탄기흥로 707,37.2227539016456,127.098405305052,,,,,,
스타벅스,부천스테이트몰점,,프렌차이즈,경기도 부천시 신흥로 170,37.498882676981204,126.777835542948,,,,,,
GS25,화성능동점,,편의점,경기도 화성시 동탄지성로 202,37.2127478519556,127.054010093874,,,,,,
이디야, ,점,프렌차이즈,경기도 남양주시 화도읍 먹갓로 31,37.656894556331004,127.27429026005801,,,,,,
GS25, ,풍성신미주,편의점,경기도 성남시 분당구 판교로 375,37.4042606090525,127.115188422935,,,,,,
맥도날드, ,,프렌차이즈,경기도 수원시 영통구 덕영대로 1495,37.246091869438295,127.054438814151,,,,,,
이디야,야탑2호점,,프렌차이즈,경기도 성남시 분당구 야탑로69번길 8,37.410519429774,127.12681766023898,,,,,,
이디야,일산고양동점,,프렌차이즈,경기도 고양시 덕양구 혜음로 42,37.704179044802,126.90227807178002,,,,,,
나들가게, ,,편의점,경기도 수원시 영통구 영통로90번길 4-27,37.2389399258561,127.060445154568,,,,,,
이디야, ,,프렌차이즈,경기도 남양주시 진접읍 금강로유연들1길 154,37.7088212300091,127.182009629774,,,,,,
맥도날드,강선점,,프렌차이즈,경기도 고양시 일산서구 대산로 113,37.6738122609424,126.764486412559,,,,,,
GS25, ,시,편의점,경기도 부천시 도약로 29,37.512657340071705,126.752635765246,,,,,,
나들가게, ,,편의점,"경기도 수원시 팔달구 덕영대로697번길 16, (화서동)",37.284568763481396,126.991165927588,,,,,,
GS25, ,수원매산로,편의점,"경기도 수원시 팔달구 갓매산로 30, (매산로2가)",37.267429024101205,127.00595022423,,,,,,
맥도날드, ,용인동백DT점,프렌차이즈,경기도 용인시 기흥구 어정로 106,37.2748153658644,127.141512621071,,,,,,
GS25,삼성올리브점,삼성올리브점,편의점,"경기도 수원시 영통구 신원로283번길 52, (매탄동)",37.2587514892888,127.058868871168,,,,,,
이디야,오산시청점,,프렌차이즈,경기도 오산시 성호대로 130,37.1484637224589,127.07579451294399,,,,,,
버거킹,의정부HP점,,프렌차이즈,경기도 의정부시 청사로 38,37.7521578405133,127.070981200972,,,,,,
스타벅스,평내DT점,,프렌차이즈,경기도 남양주시 경춘로 1269,37.647759795110204,127.23466006379,,,,,,
GS25, ,철산로데오,편의점,경기도 광명시 철산로 12,37.475556782641,126.86755308266599,,,,,,
GS25,포천마루점,,편의점,경기도 포천시 소흘읍 태봉로 17,37.8200894077152,127.135417983929,,,,,,
이디야,용인흥덕점,,프렌차이즈,경기도 용인시 기흥구 흥덕1로79번길 2,37.2749806807776,127.07148751108801,,,,,,
GS25,안양능곡점,안양능곡점,편의점,경기도 안양시 만안구 능곡로 38,37.3915382945334,126.914160162554,,,,,,
스타벅스,안산고잔점,,프렌차이즈,경기도 안산시 단원구 당곡로 12,37.3181913636383,126.833680349106,,,,,,
맥도날드,병점DT점,,프렌차이즈,경기도 화성시 경기대로 1004,37.2055475304499,127.03716794251999,,,,,,
스타벅스,백석역점,,프렌차이즈,경기도 고양시 일산동구 중앙로 1054,37.64397409976829,126.787382470059,,,,,,
GS25,화성와우점,화성와우점,편의점,경기도 화성시 봉담읍 효행로 293,37.222032478793395,126.97429760921801,,,,,,
스타벅스,의정부중앙점,,프렌차이즈,경기도 의정부시 행복로 7,37.739586565271296,127.04814006604201,,,,,,
맥도날드,마두역점,,프렌차이즈,경기도 고양시 일산동구 중앙로 1190,37.6530630251936,126.77755670634701,,,,,,
스타벅스,구리돌다리점,,프렌차이즈,경기도 구리시 검배로 5,37.6006098780667,127.14192790548701,,,,,,
이디야,광교경기도청점,,프렌차이즈,경기도 수원시 영통구 센트럴타운로 92,37.2917326723738,127.051127274282,,,,,,
스타벅스, ,파주금릉역,프렌차이즈,경기도 파주시 금릉역로 84,37.7521425603281,126.765931116178,,,,,,
맥도날드,덕소점,,프렌차이즈,경기도 남양주시 와부읍 덕소로 93,37.5858643234788,127.212388369051,,,,,,
스타벅스,수지이마트점,,프렌차이즈,경기도 용인시 수지구 수지로 203,37.319730822725205,127.08331422604601,,,,,,
GS25,리더스인스빌점,리더스인스빌점,편의점,경기도 남양주시 진접읍 해밀예당1로 66,37.7148778711485,127.19008681305,,,,,,
GS25, ,마트,편의점,경기도 화성시 동탄문화센터로 38,37.197319036462396,127.070839993262,,,,,,
GS25, ,용인모현,편의점,경기도 용인시 처인구 모현면 외대로 22,37.3364337413118,127.25192527460501,,,,,,
나들가게, ,,편의점,경기도 광명시 오리로 347,37.4334607518201,126.87900116953399,,,,,,
나들가게, ,,편의점,"경기도 수원시 권선구 세권로181번길 20-23, (권선동)",37.2563035692392,127.025824217492,,,,,,
GS25,운정7단지,,편의점,경기도 파주시 와석순환로 61,37.7087912236644,126.75354022859699,,,,,,
이디야,평촌점,,프렌차이즈,경기도 안양시 동안구 관평로182번길 54,37.393853140653206,126.963253581826,,,,,,
맥도날드,이천이마트점,,프렌차이즈,경기도 이천시 이섭대천로 1440-50,37.2939757964133,127.459110564524,,,,,,
스타벅스,평촌아크로타워점,,프렌차이즈,경기도 안양시 동안구 시민대로 230,37.392306965353605,126.95649889206499,,,,,,
GS25, ,가평현리,편의점,경기도 가평군 조종면 청군로 1245,37.815927097395,127.348265755152,,,,,,
스타벅스,안양비산DT점,,프렌차이즈,경기도 안양시 동안구 경수대로 821,37.3925281637662,126.94285348097,,,,,,
버거킹,부천현대점,,프렌차이즈,경기도 부천시 길주로 180,37.5043049309835,126.762071535382,,,,,,
맥도날드,고양풍동DT점,고양풍동DT점고양풍동DT점,프렌차이즈,경기도 고양시 일산동구 백마로 493,37.6627656804919,126.802910435315,,,,,,
GS25,덕양세솔점,,편의점,경기도 고양시 덕양구 삼송로 203,37.6539377534339,126.896433795937,,,,,,
이디야,교하점,,프렌차이즈,경기도 파주시 청석로 260,37.7250935235583,126.71771671564899,,,,,,
스타벅스, ,,프렌차이즈,경기도 안양시 동안구 평촌대로 223,37.391456612415,126.955099032598,,,,,,
GS25,양주조은점,양주조은점,편의점,경기도 양주시 고암길 252-36,37.8352113505996,127.074166770095,,,,,,
GS25,운정도시농부,운정도시농부,편의점,경기도 파주시 하우2길 55,37.71756500127,126.76706072390499,,,,,,
맥도날드,용인수지점,,프렌차이즈,경기도 용인시 수지구 풍덕천로 119,37.3229824476477,127.094851128212,,,,,,
버거킹,의정부점,의정부점,프렌차이즈,경기도 의정부시 행복로 18,37.7403061726683,127.04910661291001,,,,,,
버거킹,죽전SK점,죽전SK점,프렌차이즈,경기도 용인시 수지구 용구대로 2751,37.3313302914811,127.10840498453199,,,,,,
버거킹,의정부신세계점,,프렌차이즈,경기도 의정부시 평화로 525,37.737982314148795,127.045857428737,,,,,,
버거킹, ,서수원이마트,프렌차이즈,"경기도 수원시 권선구 수인로 291, (구운동)",37.2826215528165,126.970137925629,,,,,,
버거킹,분당상록점,분당상록점,프렌차이즈,경기도 성남시 분당구 정자로 88,37.363156754162105,127.11442947165001,,,,,,
버거킹,분당정자점,분당정자점,프렌차이즈,경기도 성남시 분당구 정자일로 234,37.3711871110814,127.106273828981,,,,,,
맥도날드,화정점,,프렌차이즈,경기도 고양시 덕양구 화신로272번길 67,37.6338327671611,126.83154022696002,,,,,,
스타벅스, ,,프렌차이즈,경기도 성남시 분당구 정자일로 166,37.364879690318,127.10629219693399,,,,,,
버거킹,아주대병원점,아주대병원점,프렌차이즈,"경기도 수원시 영통구 월드컵로 164, (원천동)",37.2794397582259,127.047503987337,,,,,,
버거킹, ,의정부HP점,프렌차이즈,경기도 의정부시 청사로 38,37.7521578405133,127.070981200972,,,,,,
버거킹,일산마두점,,프렌차이즈,경기도 고양시 일산동구 장백로 194,37.65199973974789,126.776678882171,,,,,,
버거킹, ,일산호수공원,프렌차이즈,경기도 고양시 일산동구 중앙로1275번길 38-10,37.6599409333231,126.770927134288,,,,,,
이디야,남양주사능점,,프렌차이즈,경기도 남양주시 진건읍 진건오남로 90,37.6587160290667,127.178332190798,,,,,,
버거킹,광명철산점,광명철산점,프렌차이즈,경기도 광명시 철산로 24,37.4759849555112,126.868982458458,,,,,,
스타벅스,판교H스퀘어,판교에이치스퀘어,프렌차이즈,경기도 성남시 분당구 판교역로 231,37.401264899024504,127.10863878625099,,,,,,
버거킹,일산백마점,일산백마점,프렌차이즈,경기도 고양시 일산동구 일산로 237,37.6571088791044,126.788064183267,,,,,,
맥도날드,평택SK점,,프렌차이즈,경기도 평택시 경기대로 570,37.005414795726104,127.084461675881,,,,,,
스타벅스,수내점,,프렌차이즈,경기도 성남시 분당구 황새울로 234,37.3795278512968,127.11422571688699,,,,,,
맥도날드,용인시청DT점,용인시청DT점,프렌차이즈,경기도 용인시 처인구 중부대로 1166,37.2387715420015,127.174482108184,,,,,,
버거킹,평택점,,프렌차이즈,경기도 평택시 평택1로 11,36.9931598810342,127.086866651725,,,,,,
GS25,수원매탄점,,편의점,"경기도 수원시 영통구 효원로 363, (매탄동, 매탄위브하늘채)",37.261524580816605,127.039511026915,,,,,,
GS25, ,,편의점,경기도 시흥시 동서로 1097,37.3868410293249,126.86025015891,,,,,,
맥도날드, ,화성봉담DT점,프렌차이즈,경기도 화성시 효행로 269,37.223978540193,126.973223315333,,,,,,
이디야, ,성빈센트병원,프렌차이즈,"경기도 수원시 팔달구 중부대로 93, (지동)",37.2779159718294,127.027440166173,,,,,,
버거킹,수원역사1점,,프렌차이즈,"경기도 수원시 팔달구 덕영대로 924, (매산로1가)",37.2656675906019,127.00008813955601,,,,,,
GS25,정왕케이점,,편의점,경기도 시흥시 정왕천로389번길 19,37.3438320301544,126.748673728182,,,,,,
스타벅스,정자역점,,프렌차이즈,경기도 성남시 분당구 성남대로343번길 12-2,37.3668022303884,127.10672097855,,,,,,
스타벅스, ,커피용인처인구청,프렌차이즈,경기도 용인시 처인구 금령로 60,37.234749233248,127.202926246884,,,,,,
맥도날드,동판교점,,프렌차이즈,경기도 성남시 분당구 대왕판교로606번길 58,37.3954087241489,127.113541933167,,,,,,
이디야, ,,프렌차이즈,경기도 수원시 영통구 영통로 107,37.237611079546205,127.057644079309,,,,,,
스타벅스, ,커피분당서울대병원1층,프렌차이즈,경기도 성남시 분당구 구미로173번길 82,37.3520220371583,127.124470630558,,,,,,
이디야, ,,프렌차이즈,경기도 성남시 분당구 정자일로 248,37.375667230653896,127.10769978788099,,,,,,
탐앤탐스, ,,프렌차이즈,경기도 평택시 비전5로 15,37.000404014920896,127.112879379719,,,,,,
이디야,이마트고잔점,,프렌차이즈,경기도 안산시 단원구 원포공원1로 46,37.3031525784688,126.812841950909,,,,,,
GS25,수원인계로,,편의점,경기도 수원시 팔달구 인계로40번길 10-4,37.2693358227414,127.021755201712,,,,,,
GS25,송내2단지점,송내2단지점,편의점,경기도 동두천시 지행로 16,37.8923361218799,127.04832551069799,,,,,,
버거킹,분당서현점,분당서현점,프렌차이즈,경기도 성남시 분당구 분당로53번길 19,37.3845159275885,127.1221619768,,,,,,
이디야, ,,프렌차이즈,경기도 포천시 소흘읍 솔모루로81번길 23,37.8302956451889,127.146227133075,,,,,,
맥도날드,수지DT점,용인,프렌차이즈,경기도 용인시 수지구 신수로 677,37.33034632002121,127.10221032833701,,,,,,
맥도날드, ,,프렌차이즈,경기도 안산시 상록구 본삼로 51,37.3010685169067,126.86586591777201,,,,,,
버거킹,금촌역점,,프렌차이즈,경기도 파주시 중앙로 328,37.7648639986025,126.774504300683,,,,,,
버거킹,분당야탑점,,프렌차이즈,경기도 성남시 분당구 성남대로916번길 11,37.4108480040811,127.129829942146,,,,,,
이디야,선부중앙점,선부중앙점,프렌차이즈,경기도 안산시 단원구 선부로 191,37.3418606428783,126.81627310893299,,,,,,
버거킹,분당정자점,,프렌차이즈,경기도 성남시 분당구 내정로 54,37.3638453394592,127.116137334481,,,,,,
이디야, ,,프렌차이즈,경기도 성남시 분당구 성남대로172번길 24,37.3508800128896,127.111492283445,,,,,,
스타벅스,수내역,,프렌차이즈,경기도 성남시 분당구 백현로101번길 30,37.3777495836705,127.11380627139,,,,,,
이디야,아주대점,아주대점,프렌차이즈,"경기도 수원시 영통구 월드컵로 206, (원천동)",37.2829666920919,127.043490027178,,,,,,
GS25, ,,편의점,경기도 성남시 분당구 돌마로 478,37.3769758852078,127.13342810518299,,,,,,
버거킹,하남이마트점,,프렌차이즈,경기도 하남시 덕풍서로 70,37.5527393727753,127.20534664451,,,,,,
스타벅스,안성중앙로점,,프렌차이즈,경기도 안성시 중앙로 395,37.007516695545796,127.270768046049,,,,,,
탐앤탐스, ,,프렌차이즈,경기도 평택시 비전5로 7-1,37.0002180075842,127.11210631363501,,,,,,
탐앤탐스,평택점,평택점,프렌차이즈,경기도 평택시 통미로47번길 16,36.9923308644906,127.09866102614401,,,,,,
탐앤탐스,수원경희대점,수원경희대점,프렌차이즈,경기도 성남시 분당구 내정로165번길 38,37.3774252948354,127.117434566234,,,,,,
이디야,이마트서수원점,,프렌차이즈,"경기도 수원시 권선구 수인로 291, (구운동)",37.2826215528165,126.970137925629,,,,,,
버거킹, ,광명소하마트,프렌차이즈,경기도 광명시 소하로 97,37.4465873861951,126.88453513444999,,,,,,
버거킹,수원역사점,,프렌차이즈,"경기도 수원시 팔달구 덕영대로 924, (매산로1가)",37.2656675906019,127.00008813955601,,,,,,
이디야,송내남부역점,송내남부역점,프렌차이즈,경기도 부천시 송내대로 31,37.4863126559242,126.75277996749901,,,,,,
이디야,동두천중앙역점,,프렌차이즈,경기도 동두천시 중앙로 278,37.9062150214914,127.054355622307,,,,,,
이디야,마석중앙점,마석중앙점,프렌차이즈,경기도 남양주시 화도읍 비룡로 112,37.6621416835976,127.303187060518,,,,,,
이디야,여주중앙점,,프렌차이즈,경기도 여주시 여흥로 111-1,37.2959852833938,127.63589906197599,,,,,,
탐앤탐스, ,,프렌차이즈,경기도 안산시 단원구 화랑로 387,37.3225428496887,126.832699198611,,,,,,
GS25,동백월드,,편의점,경기도 용인시 기흥구 동백죽전대로 283,37.2632630014562,127.15398898211201,,,,,,
스타벅스,분당정자,분당정자,프렌차이즈,경기도 성남시 분당구 성남대로 393,37.3716627072825,127.10720528516501,,,,,,
맥도날드, ,수원인계DT,프렌차이즈,"경기도 수원시 팔달구 권광로 261, (인계동)",37.270669621132896,127.034952447558,,,,,,
스타벅스,평택로데오점,,프렌차이즈,경기도 평택시 중앙2로 13,36.9919560649725,127.088521198318,,,,,,
이디야,파주운정이마트점,파주운정이마트점,프렌차이즈,경기도 파주시 미래로310번길 140,37.706088829398105,126.75274629024901,,,,,,
스타벅스,광교이마트점,,프렌차이즈,경기도 수원시 영통구 광교로 191,37.296339638053105,127.046941286326,,,,,,
버거킹,분당수내점,분당수내점,프렌차이즈,경기도 성남시 분당구 내정로 167,37.3738697039715,127.11913595611799,,,,,,
스타벅스,킨텍스이마트점,,프렌차이즈,경기도 고양시 일산서구 한류월드로 407,37.663837258588295,126.742244215322,,,,,,
GS25,평택노와리점,평택노와리점,편의점,경기도 평택시 팽성읍 노와4길 58-13,36.9522528348646,127.07929344055701,,,,,,
이디야, ,,프렌차이즈,경기도 용인시 수지구 죽전로 150,37.323916584609705,127.124390611882,,,,,,
이디야, ,,프렌차이즈,경기도 시흥시 복지로 90,37.4469897611766,126.79165422281,,,,,,
스타벅스, ,웨스턴돔2,프렌차이즈,경기도 고양시 일산동구 정발산로 24,37.655888808787,126.772025233806,,,,,,
스타벅스,분당이마트점,,프렌차이즈,경기도 성남시 분당구 불정로 134,37.3587901131149,127.119741184902,,,,,,
탐앤탐스, ,,프렌차이즈,경기도 안산시 상록구 예술광장1로 126,37.3269173282621,126.84415186543998,,,,,,
GS25, ,,편의점,경기도 안성시 장기로69번길 37,37.0059370929335,127.27034492491501,,,,,,
GS25, ,중앙점내,편의점,경기도 안산시 단원구 민속공원로 98,37.3139466136334,126.83910462207301,,,,,,
이디야, ,,프렌차이즈,경기도 안산시 단원구 원포공원1로 46,37.3031525784688,126.812841950909,,,,,,
이디야,안양호계동점,,프렌차이즈,경기도 안양시 동안구 엘에스로 34,37.367378014783604,126.955884639075,,,,,,
맥도날드, ,의정부녹양DT,프렌차이즈,경기도 의정부시 서부로 717,37.7566732056289,127.038558620697,,,,,,
스타벅스, ,서현골든프라자,프렌차이즈,경기도 성남시 분당구 황새울로335번길 5,37.3860441907195,127.12168116682699,,,,,,
GS25,정남점,,편의점,경기도 화성시 정남면 가장로 353,37.1622204958106,127.018250900457,,,,,,
이디야,일반음식점,,프렌차이즈,경기도 부천시 소사동로72번길 17,37.4725095353806,126.803385273678,,,,,,
이디야,수원인계점,,프렌차이즈,"경기도 수원시 팔달구 권광로 169, (인계동)",37.262814470291296,127.031929787041,,,,,,
이디야, ,,프렌차이즈,"경기도 수원시 팔달구 덕영대로 907, (매산로1가)",37.2676624847467,127.000501474577,,,,,,
GS25, ,,편의점,경기도 용인시 수지구 성복2로 35,37.3125451954996,127.080479580977,,,,,,
이디야,구리돌다리점,,프렌차이즈,경기도 구리시 검배로 4,37.6005053350299,127.14118166485201,,,,,,
맥도날드, ,,프렌차이즈,경기도 안양시 만안구 안양로292번길 22,37.3988648110349,126.923123746784,,,,,,
맥도날드,중동DT점,,프렌차이즈,경기도 부천시 중동로262번길 94,37.5021964655892,126.77416243564501,,,,,,
맥도날드,산본이마트점,,프렌차이즈,경기도 군포시 산본로 347,37.3610771928926,126.931407927355,,,,,,
맥도날드,오산DT점,,프렌차이즈,경기도 오산시 경기대로 174,37.1402749032277,127.073778046834,,,,,,
버거킹,일산호수공원점,,프렌차이즈,경기도 고양시 일산동구 중앙로1275번길 38-10,37.6599409333231,126.770927134288,,,,,,
스타벅스,서판교점,서판교점,프렌차이즈,경기도 성남시 분당구 운중로 132,37.3912871866278,127.077723024437,,,,,,
스타벅스,일산주엽점,,프렌차이즈,경기도 고양시 일산서구 중앙로 1420,37.669900737663,126.762658313189,,,,,,
맥도날드, ,의정부금오D,프렌차이즈,경기도 의정부시 호국로 1604,37.755488616427996,127.078633770136,,,,,,
스타벅스,광교아브뉴프랑점,광교아브뉴프랑점,프렌차이즈,경기도 수원시 영통구 센트럴타운로 85,37.290120339692294,127.05120391333901,,,,,,
스타벅스, ,일산,프렌차이즈,경기도 고양시 일산서구 일현로 97-11,37.6950605265679,126.76214957853,,,,,,
스타벅스, ,,프렌차이즈,경기도 안양시 동안구 시민대로 325,37.396112925630604,126.966124983447,,,,,,
탐앤탐스,범계점,,프렌차이즈,경기도 안양시 동안구 평촌대로223번길 44,37.3908083658995,126.953120448735,,,,,,
GS25, ,,편의점,경기도 성남시 수정구 수정남로 84-1,37.4415375491005,127.13706885706699,,,,,,
버거킹,성남이마트점,,프렌차이즈,경기도 성남시 수정구 수정로 201,37.4442813117988,127.141399637783,,,,,,
GS25,부천원종로점,,편의점,경기도 부천시 원종로29번길 63,37.526915531354,126.802629828115,,,,,,
버거킹,이천CGV점,이천CGV점,프렌차이즈,경기도 이천시 중리천로 58,37.279641899656,127.444147331574,,,,,,
맥도날드, ,수원성균관대,프렌차이즈,"경기도 수원시 장안구 서부로 2127, (율전동)",37.2984899938794,126.97121872183901,,,,,,
나들가게, ,진주마트,편의점,"경기도 수원시 권선구 권선로734번길 5, (권선동)",37.25752137936011,127.031478960504,,,,,,
맥도날드,수원성점,,프렌차이즈,"경기도 수원시 팔달구 세지로 436, (우만동)",37.287064102580295,127.03209287134099,,,,,,
버거킹,판교유스페이스점,,프렌차이즈,경기도 성남시 분당구 대왕판교로 660,37.4002514151639,127.106877533338,,,,,,
맥도날드, ,수원아주,프렌차이즈,"경기도 수원시 영통구 아주로 46, (원천동)",37.2787903486566,127.04407286878,,,,,,
맥도날드, ,철산역,프렌차이즈,경기도 광명시 오리로856번길 17,37.4754851222067,126.868537762219,,,,,,
맥도날드, ,오산세교DT,프렌차이즈,경기도 오산시 경기대로 651,37.178556823404605,127.05586681683701,,,,,,
GS25,월피주공점,,편의점,경기도 안산시 상록구 예술광장1로 7,37.3287746484986,126.843344838886,,,,,,
GS25, ,수퍼마켓,편의점,경기도 광주시 오포읍 신현로 48,37.360495563149705,127.15214238776001,,,,,,
GS25,인계중앙점,인계중앙점,편의점,"경기도 수원시 팔달구 세지로198번길 32, (인계동)",37.2682515069758,127.024666855002,,,,,,
GS25,프로방스점,,편의점,경기도 파주시 탄현면 새오리로 69,37.7904059813968,126.68498095207799,,,,,,
GS25,대곶행복점,,편의점,경기도 김포시 대곶면 율생중앙로 45,37.6522461554549,126.58294957393299,,,,,,
GS25,부천은하점,,편의점,경기도 부천시 중동로279번길 22,37.5052419852518,126.768966535793,,,,,,
GS25,편의점,,편의점,경기도 구리시 안골로85번길 11,37.597968245604896,127.14047473536999,,,,,,
GS25,상동신라점,,편의점,경기도 부천시 상일로 72,37.490506214784006,126.749724961456,,,,,,
GS25,용문점,,편의점,경기도 양평군 용문면 용문로 346-2,37.483607292174604,127.592881606731,,,,,,
GS25,평택서부점,,편의점,경기도 평택시 원평2로27번길 16,36.9911168195528,127.081352807021,,,,,,
GS25,동두천월드점,,편의점,경기도 동두천시 장고갯로 106,37.9044337869676,127.06371419962099,,,,,,
GS25,안양행운점,,편의점,경기도 안양시 동안구 관악대로388번길 8,37.404068376515795,126.966015683176,,,,,,
GS25,신분당정자가,신분당정자나신분당정자가,편의점,경기도 성남시 분당구 정자일로 135,37.3622136337529,127.10525136710599,,,,,,
GS25,정왕영남점,정왕영남점,편의점,경기도 시흥시 옥구천동로 420,37.3577335410219,126.731590132512,,,,,,
GS25, ,시,편의점,경기도 과천시 별양상가로 2,37.4277477125647,126.992027248179,,,,,,
GS25,신갈제일점,,편의점,경기도 용인시 기흥구 신갈로 98,37.2753174058699,127.105863650565,,,,,,
GS25,참새미점,참새미점,편의점,경기도 용인시 처인구 양지면 중부대로2565번길 2,37.2444244576455,127.319495086036,,,,,,
GS25,북삼송점,,편의점,경기도 고양시 덕양구 신원로 40,37.6639635882283,126.888487384904,,,,,,
GS25,양평교통재활병원점,,편의점,경기도 양평군 양평읍 중앙로 260,37.4896814970609,127.51881284057501,,,,,,
GS25,시흥대우점,,편의점,경기도 시흥시 은행로 107,37.4412727487399,126.797407715348,,,,,,
맥도날드,단국대점,단국대점,프렌차이즈,경기도 용인시 수지구 죽전로144번길 19,37.3224045564688,127.12463381455099,,,,,,
맥도날드, ,김포감정DT,프렌차이즈,경기도 김포시 중봉로 19,37.6242388828845,126.696681923779,,,,,,
GS25,궐동우진점,,편의점,경기도 오산시 법원로15번길 63,37.1545176306554,127.055028756943,,,,,,
GS25,평택공원점,,편의점,경기도 평택시 중앙로 50,36.9944252930027,127.088536667968,,,,,,
GS25,오포행복점,,편의점,경기도 광주시 오포읍 양촌안길 35-4,37.3719987743744,127.251764200405,,,,,,
GS25,의정해궁점,의정해궁점,편의점,경기도 의정부시 경의로 72,37.732744430844,127.04326993910401,,,,,,
GS25,분당백현점,,편의점,경기도 성남시 분당구 대왕판교로395번길 4,37.3792798945389,127.101661210782,,,,,,
GS25,안산타크라2,,편의점,경기도 안산시 단원구 성곡로 176,37.3252045763271,126.76126993417299,,,,,,
GS25,행신비전점,,편의점,경기도 고양시 덕양구 중앙로558번길 7-4,37.624232525604604,126.83565539104299,,,,,,
GS25, ,시,편의점,"경기도 수원시 장안구 금당로 36, (조원동)",37.303478990359395,127.015357232521,,,,,,
GS25,소사안곡로점,,편의점,경기도 부천시 경인로526번길 87,37.4817547400763,126.81595777792,,,,,,
GS25,출판도시점,,편의점,경기도 파주시 회동길 125-22,37.707629784898295,126.68639972319401,,,,,,
GS25,용인남사점,,편의점,경기도 용인시 처인구 남사면 경기동로 395,37.1396949547751,127.16683664143999,,,,,,
GS25, ,평촌타워,편의점,경기도 안양시 동안구 평촌대로427번길 60-33,37.410034026731296,126.947702002042,,,,,,
GS25,오목천아름점,,편의점,"경기도 수원시 권선구 오목천로57번길 10-21, (오목천동)",37.240601527059205,126.96986462765899,,,,,,
GS25,남문아울렛점,남문아울렛점,편의점,"경기도 수원시 팔달구 수원천로 232-16, (인계동)",37.2738021922548,127.020299233722,,,,,,
GS25,율전제일점,,편의점,"경기도 수원시 장안구 덕영대로439번길 13-4, (율전동)",37.3015441972716,126.97116583986201,,,,,,
GS25,편의점의정행복점,,편의점,경기도 의정부시 평화로562번길 18,37.7421439154121,127.047948468744,,,,,,
GS25, ,화성원평,편의점,"경기도 수원시 팔달구 정자천로32번길 20, (화서동, 꽃뫼버들마을엘지아파트)",37.288131261275,126.979975960011,,,,,,
GS25,광주교헌점,,편의점,경기도 광주시 오포읍 머루숯길 53,37.3638894174827,127.157997174242,,,,,,
GS25,원당하늘점,,편의점,경기도 고양시 덕양구 호국로790번길 87,37.654637004766705,126.840643179345,,,,,,
GS25,수원망포점,,편의점,경기도 화성시 영통로61번길 10,37.2336059000448,127.05823487641099,,,,,,
GS25,신곡으뜸점,,편의점,경기도 의정부시 발곡로 5,37.731383538340104,127.055517038477,,,,,,
GS25,이천단월점,,편의점,경기도 이천시 진상미로 1855,37.2136044728179,127.451099382561,,,,,,
GS25,구리명동점,,편의점,경기도 구리시 딸기원로24번길 25,37.602074412503,127.12055194931601,,,,,,
GS25, ,,편의점,경기도 고양시 덕양구 충장로 150,37.6251742493668,126.83612781948601,,,,,,
GS25,문형삼거리점,,편의점,경기도 광주시 오포읍 오포로 543,37.3469557380211,127.211267660223,,,,,,
GS25,이천초지점,,편의점,경기도 이천시 대월면 대평로 192,37.223629273733295,127.496709138729,,,,,,
GS25,용인고림점,,편의점,경기도 용인시 처인구 한터로 126,37.2497633085281,127.22489546530001,,,,,,
GS25,안산반월역점,,편의점,경기도 안산시 상록구 건건로 119-9,37.3112858925681,126.90403434049699,,,,,,
GS25,파주유승점,,편의점,경기도 파주시 탄현면 하늘소로 16,37.773819894164795,126.698873105074,,,,,,
GS25,영통벽산점,,편의점,"경기도 수원시 영통구 봉영로1744번길 11, (영통동, 황골마을벽산풍림아파트)",37.266627527644,127.083045090169,,,,,,
GS25,양평창대리점,,편의점,경기도 양평군 양평읍 양근로 500,37.4741227510619,127.517329762221,,,,,,
스타벅스, ,,프렌차이즈,경기도 동두천시 중앙로 348,37.9123634981601,127.05593729953002,,,,,,
GS25,여주태평점,여주태평점,편의점,경기도 여주시 가남읍 태평3길 1,37.203819228984706,127.54724277743999,,,,,,
GS25,김포걸포동점,,편의점,경기도 김포시 걸포1로 39,37.6364483115099,126.70657494096201,,,,,,
GS25, ,수원식품,편의점,경기도 수원시 영통구 영통로241번길 12-6,37.249222803535,127.05721769160299,,,,,,
GS25,원동사거리점,원동사거리점,편의점,경기도 오산시 원동로 41,37.1428910809371,127.07300323853701,,,,,,
GS25,호계도서관점,호계도서관점호계도서관점,편의점,경기도 안양시 동안구 귀인로 98,37.381918948090004,126.950534023853,,,,,,
GS25,이천대월점,,편의점,경기도 이천시 대월면 사동로 173,37.244364122284104,127.494610041016,,,,,,
GS25,포천동교점,포천동교점,편의점,경기도 포천시 화합로 142,37.8390542862596,127.126675733659,,,,,,
GS25,오포센터,오포센터,편의점,경기도 광주시 오포읍 오포로 676,37.357336419345,127.216712881262,,,,,,
GS25,편의점,,편의점,경기도 김포시 고촌읍 고송로 28,37.605213772757395,126.769246066655,,,,,,
GS25,인계공원점,,편의점,"경기도 수원시 팔달구 장다리로306번길 37, 1동  (인계동, 미래빌)",37.2735458478439,127.03075503596399,,,,,,
GS25,식사도서관점,,편의점,경기도 고양시 일산동구 위시티2로 43-27,37.6762266961984,126.81449502820101,,,,,,
GS25,광교우리점,,편의점,경기도 용인시 수지구 광교중앙로 311,37.2978120377123,127.068905967246,,,,,,
나들가게, ,,편의점,경기도 안산시 단원구 대선로 141,37.2600004766072,126.57068306086201,,,,,,
GS25,편의점,,편의점,경기도 김포시 장릉로 37,37.6123783817663,126.72109316909099,,,,,,
GS25,의정호국점,,편의점,경기도 의정부시 태평로108번길 19,37.7421741177888,127.052815666189,,,,,,
GS25,포천미리내점,,편의점,경기도 포천시 소흘읍 소흘로 114,37.8118542270815,127.142827981246,,,,,,
GS25,편의점작동중앙점,,편의점,경기도 부천시 삼작로 489,37.5187424093884,126.815961774804,,,,,,
GS25,의정충의점,의정충의점,편의점,경기도 의정부시 용현로 120,37.741253010410105,127.089135328785,,,,,,
GS25,하남배다리점,,편의점,경기도 하남시 서하남로 38,37.5160639702738,127.148145696171,,,,,,
GS25,의왕효성점,의왕효성점,편의점,경기도 의왕시 부곡시장3길 15,37.3190347663043,126.953767040681,,,,,,
GS25,이천초지점,,편의점,경기도 이천시 대월면 대월로 743-14,37.222611369842504,127.496794780398,,,,,,
GS25, ,여주IC,편의점,경기도 여주시 세종로 491,37.2567039835063,127.647294022214,,,,,,
GS25,의정부소영점,의정부소영점,편의점,경기도 의정부시 청사로47번길 26,37.7524150040014,127.06817504683501,,,,,,
맥도날드,광명소하DT점,,프렌차이즈,경기도 광명시 오리로 512,37.4476512362337,126.88173915684601,,,,,,
GS25,시흥한성점,,편의점,경기도 시흥시 호현로9번길 5,37.4420435015031,126.782919300056,,,,,,
GS25,모란소망점,,편의점,경기도 성남시 중원구 광명로42번길 26,37.4315153445595,127.134291286414,,,,,,
GS25,어연산단,,편의점,경기도 평택시 청북읍 청북산단로 34,37.0504413054652,126.973980684014,,,,,,
스타벅스, ,,프렌차이즈,경기도 안성시 삼죽면 삼백로 10,37.0750071973537,127.37574806389799,,,,,,
GS25,이천행궁점,,편의점,경기도 이천시 영창로193번길 22,37.282166617442,127.444489634797,,,,,,
GS25,이천부발점,,편의점,경기도 이천시 부발읍 무촌로 101,37.2826481094139,127.485219572022,,,,,,
GS25, ,시,편의점,경기도 고양시 덕양구 은빛로29번길 5-19,37.6385109690363,126.82991470226901,,,,,,
GS25,시화행복점,,편의점,경기도 시흥시 경기과기대로 84,37.32432235496071,126.72403958544099,,,,,,
GS25,모란스타점,,편의점,경기도 성남시 중원구 성남대로1139번길 10,37.4314678371774,127.127828611442,,,,,,
GS25,부천직업학교점,,편의점,경기도 부천시 경인로53번길 8,37.4839445988854,126.761503022671,,,,,,
GS25,안성타워점,,편의점,경기도 안성시 중앙로 366,37.0077752763786,127.267394653589,,,,,,
GS25,반월삼성점,반월삼성반월삼성점,편의점,경기도 화성시 반월남길 10,37.224341011091,127.062575704823,,,,,,
스타벅스, ,,프렌차이즈,경기도 안산시 단원구 원본로5길 13,37.3307791487073,126.795007538105,,,,,,
GS25,시화제일점,,편의점,경기도 시흥시 중심상가2길 8,37.3457091931406,126.736239158005,,,,,,
GS25,행신무원점,,편의점,경기도 고양시 덕양구 무원로36번길 1,37.6160202746304,126.832521305304,,,,,,
GS25,하남춘궁점,,편의점,경기도 하남시 대성로 102,37.5192732203132,127.197239839886,,,,,,
GS25,오산타운점,,편의점,경기도 오산시 대호로 135,37.1622038833787,127.053874730224,,,,,,
GS25,심곡소림사점,,편의점,경기도 부천시 성주로 201,37.478438312665894,126.778722601636,,,,,,
GS25,부천여월점,,편의점,경기도 부천시 삼작로 325,37.5200816344777,126.797795536463,,,,,,
GS25,파주프린팅점,,편의점,경기도 파주시 조리읍 등원로 373,37.7745181122266,126.83352938891001,,,,,,
GS25,덕계중앙점,,편의점,경기도 양주시 평화로1435번길 9,37.8194159805125,127.045855080755,,,,,,
GS25,백석21C점,,편의점,경기도 고양시 일산동구 중앙로 1059,37.6439163563375,126.786148315475,,,,,,
GS25,포천마산점,포천마산점,편의점,경기도 포천시 가산면 가산로 369,37.8478867968624,127.19007723946999,,,,,,
GS25,동탄대우점,,편의점,경기도 화성시 노작로 239,37.2085652888538,127.077822210128,,,,,,
GS25,창현이안점,,편의점,경기도 남양주시 화도읍 수레로 1168,37.6415103521807,127.303640424361,,,,,,
GS25,안성미양점,,편의점,경기도 안성시 미양면 신두만곡로 447,36.9742182748194,127.21139069248501,,,,,,
GS25,양주봉양점,,편의점,경기도 양주시 칠봉산로 116,37.846419499552205,127.08333240373301,,,,,,
GS25,동서울대점,,편의점,경기도 성남시 수정구 복정로72번길 4,37.4591413184632,127.126829102122,,,,,,
GS25,광명한진점,,편의점,경기도 광명시 광명로887번길 20-1,37.4791519373134,126.85168135531299,,,,,,
GS25,포천문암점,,편의점,경기도 포천시 영북면 호국로 3740,38.0703757677686,127.27372315004,,,,,,
GS25,마북누리점,,편의점,경기도 용인시 기흥구 용구대로 2370,37.2979658824917,127.108787673451,,,,,,
GS25,수원황골점,,편의점,"경기도 수원시 영통구 삼성로320번길 62, (영통동, 영통현대아이파크아파트)",37.2659662933009,127.07104575062401,,,,,,
GS25,하남천현점,,편의점,경기도 하남시 천현로134번길 19,37.5346105205663,127.22302063808701,,,,,,
GS25,풍동위브점,,편의점,경기도 고양시 일산동구 숲속마을1로48번길 48-1,37.6660624698451,126.800159870344,,,,,,
GS25,김포메가박스점,김포메가박스점,편의점,경기도 김포시 걸포로 6,37.6322023154338,126.707192347381,,,,,,
GS25,동안산병원점,,편의점,경기도 안산시 상록구 월피로 87,37.3359914398724,126.85252153611499,,,,,,
스타벅스, ,,프렌차이즈,경기도 고양시 덕양구 벽제관로 32,37.703966164506,126.900704897531,,,,,,
GS25,수내고점,,편의점,경기도 성남시 분당구 발이봉북로 18,37.365621605590704,127.12843328802401,,,,,,
GS25,남한강일성콘도점,,편의점,경기도 여주시 신륵로 5,37.3013196530159,127.650774393792,,,,,,
GS25,여주교리,여주교리여주교리,편의점,경기도 여주시 세종로 206,37.279803341585,127.63658597313601,,,,,,
GS25,수원뉴타운점,,편의점,"경기도 수원시 영통구 동탄원천로 1035, (매탄동, 매탄삼성3차)",37.265022874075896,127.04981644725599,,,,,,
GS25,용인상갈점,용인상갈점,편의점,경기도 용인시 기흥구 금화로 14,37.2613763295452,127.105712812503,,,,,,
GS25,포천석향점,,편의점,경기도 포천시 소흘읍 태봉로 235,37.8330885405753,127.148682863013,,,,,,
GS25, ,포천터미널,편의점,경기도 포천시 중앙로 126-7,37.8973730755252,127.203702628771,,,,,,
GS25,병점주공점,,편의점,경기도 화성시 병점2로 35,37.2071508617759,127.039310591556,,,,,,
GS25,봉담토마토점,,편의점,경기도 화성시 봉담읍 와우로 89,37.2141487992974,126.975440884584,,,,,,
GS25,도곡두산점,,편의점,경기도 남양주시 와부읍 덕소로 180,37.5787651642679,127.21391232208201,,,,,,
GS25,안산레이크점,,편의점,경기도 안산시 단원구 광덕1로 165,37.3083340907321,126.82824873575599,,,,,,
GS25,한세대점,,편의점,경기도 군포시 한세로 30,37.344266648807,126.95397008363399,,,,,,
GS25, ,부천팰리스,편의점,경기도 부천시 중동로 108,37.491795755569896,126.76697088528499,,,,,,
GS25,월피제일점,,편의점,경기도 안산시 상록구 안산천동로4길 32,37.3335631142036,126.85206196215401,,,,,,
GS25,이천이평점,이천이평,편의점,경기도 이천시 마장면 덕평로 703,37.221917944357706,127.370606829334,,,,,,
GS25,죽전단대점,,편의점,경기도 성남시 분당구 장미로 55,37.415186986908104,127.124379834084,,,,,,
GS25,성남신촌점,성남신촌점,편의점,경기도 성남시 수정구 신촌로 6,37.4599730298834,127.106698993696,,,,,,
GS25,포천설운점,,편의점,경기도 포천시 호국로 885,37.8455520185841,127.15906105164301,,,,,,
GS25,평촌삼성점,,편의점,경기도 안양시 동안구 관평로 257,37.3994155996933,126.95641162676,,,,,,
GS25,안산사동점,,편의점,경기도 안산시 상록구 후곡5길 31,37.2958698261389,126.849116054678,,,,,,
GS25,시흥인하점,,편의점,경기도 시흥시 군자로 467,37.3479178221477,126.782736148065,,,,,,
GS25,실촌제일점,,편의점,경기도 광주시 곤지암읍 광여로 698,37.3747333863603,127.40484244897499,,,,,,
GS25,안양으뜸점,,편의점,경기도 안양시 만안구 안양로304번길 21,37.399999646439795,126.92207971486201,,,,,,
GS25,엘에스엠트론점,,편의점,경기도 안양시 동안구 엘에스로116번길 39,37.3738302579135,126.949845100558,,,,,,
스타벅스, ,,프렌차이즈,경기도 오산시 오산로 288,37.152608132869794,127.06879810281099,,,,,,
GS25,의정다윗점,,편의점,경기도 의정부시 녹양로 64,37.7567466965796,127.033223844471,,,,,,
GS25,광주수레실점,,편의점,경기도 성남시 수정구 산성대로165번길 6-11,37.436394265499004,127.13732001469299,,,,,,
GS25,시용인백암점,,편의점,경기도 용인시 처인구 백암면 백원로 544,37.1650829840398,127.372069260347,,,,,,
GS25,용인좌항리점,,편의점,경기도 용인시 처인구 원삼면 원양로 475,37.192703831518294,127.31538641962601,,,,,,
GS25,검산점,,편의점,경기도 파주시 평화로 346,37.772870862474605,126.744269922108,,,,,,
GS25,수지서봉점,,편의점,경기도 용인시 수지구 신봉1로 318,37.332833661337,127.054819669559,,,,,,
맥도날드,하남시청점,,프렌차이즈,경기도 하남시 대청로 25,37.5409907487094,127.214954082799,,,,,,
GS25,안산본점,,편의점,경기도 시흥시 중심상가로 326,37.336681941916,126.748228123721,,,,,,
GS25,광명북점,,편의점,경기도 광명시 시청로 142,37.4875072326791,126.86876352733299,,,,,,
GS25,신갈오거리점,,편의점,경기도 용인시 기흥구 신갈로 52,37.271271854731296,127.105911494151,,,,,,
GS25,명지사거리점,,편의점,경기도 용인시 처인구 중부대로 1303,37.236263068888505,127.18964530334101,,,,,,
GS25,상동뱅뱅점,,편의점,경기도 부천시 송내대로265번길 85,37.5073455929407,126.753900444014,,,,,,
GS25,안산서해점,,편의점,경기도 안산시 상록구 건건5길 10,37.3058493577967,126.90467726576901,,,,,,
GS25,수원수성로점,,편의점,"경기도 수원시 장안구 수성로 323, (정자동)",37.292257056528896,127.00739435068199,,,,,,
GS25,동탄하나점,,편의점,경기도 화성시 동탄하나3길 3-1,37.2138085487464,127.062751099704,,,,,,
GS25,망포늘프른점,,편의점,경기도 수원시 영통구 영통로90번길 24,37.2382669190253,127.059664581715,,,,,,
GS25,김포장기점,,편의점,경기도 김포시 김포한강1로78번길 25,37.644263572765205,126.67122244726801,,,,,,
GS25,편의점,편의점,편의점,경기도 안성시 장기로 96,37.0038908261247,127.27317344023899,,,,,,
GS25,이천창전점,이천창전점,편의점,경기도 이천시 아리역로15번길 3,37.2866041683665,127.44728775590201,,,,,,
GS25,의정센타점,,편의점,경기도 의정부시 시민로 128,37.7380904398085,127.049203029688,,,,,,
GS25,남양주사능점,,편의점,경기도 남양주시 진건읍 진건오남로 90,37.6587160290667,127.178332190798,,,,,,
GS25,화성석포점,,편의점,경기도 화성시 장안면 석포로 330,37.1432127238766,126.82749154999901,,,,,,
GS25,평택서정역점,,편의점,경기도 평택시 탄현로 48,37.0567822228897,127.05384729469601,,,,,,
GS25,N해병사본점,,편의점,경기도 화성시 봉담읍 시청로 1311,37.173086109891294,126.922642990623,,,,,,
GS25,판교도서관점,판교도서관점,편의점,경기도 성남시 분당구 운중로243번길 13,37.3908813777357,127.090478024689,,,,,,
GS25,신흥대점,,편의점,경기도 의정부시 평화로 178,37.7076471393279,127.04836726334699,,,,,,
GS25,덕양성사점,,편의점,경기도 고양시 덕양구 고양대로1384번길 9,37.6535444163,126.837657015245,,,,,,
GS25,향남풍림점,,편의점,경기도 화성시 향남읍 행정동로 62,37.1294261934635,126.92742624238001,,,,,,
GS25,장기원룸점,장기원룸점,편의점,경기도 김포시 초당로61번길 52,37.6458824264999,126.67176017081002,,,,,,
GS25,여주장미,여주장미여주장미,편의점,경기도 여주시 우암로 158,37.2885626048377,127.622322023652,,,,,,
GS25,김포정현점,,편의점,경기도 김포시 김포한강4로 131,37.644921913625204,126.666485628388,,,,,,
GS25,사동대학로점,,편의점,경기도 안산시 상록구 학사3길 16,37.3009290541594,126.84215846228001,,,,,,
GS25,백석효성점,,편의점,경기도 고양시 일산동구 일산로 30,37.64157267539021,126.786922954102,,,,,,
GS25,동탄공원점,,편의점,경기도 화성시 동탄공원로2길 21,37.20607938233479,127.061900382961,,,,,,
맥도날드, ,용인신갈DT,프렌차이즈,경기도 용인시 기흥구 중부대로 266,37.2695104364151,127.097036297418,,,,,,
GS25,경기도청역점,,편의점,경기도 수원시 영통구 도청로 65,37.2893128947903,127.049398298626,,,,,,
GS25,보정현대점,,편의점,경기도 용인시 기흥구 보정로 109,37.3194777871614,127.115179143492,,,,,,
GS25,와동제일점,,편의점,경기도 안산시 단원구 사세충열로1길 20,37.336667878810395,126.829591715039,,,,,,
GS25,호원사랑점,,편의점,경기도 의정부시 안말로85번길 20,37.7154888144039,127.04870932131399,,,,,,
GS25,한빛센트럴점,,편의점,경기도 파주시 미래로 422,37.715808861611706,126.747479432583,,,,,,
GS25,청계산점,,편의점,경기도 성남시 수정구 청계산로 449,37.43084950787679,127.072639088506,,,,,,
GS25,시흥우남점,,편의점,경기도 시흥시 대은로 100,37.445284293979896,126.799366402883,,,,,,
GS25,금촌로데오점,,편의점,경기도 파주시 문화로 87,37.762002979643,126.77490333242599,,,,,,
GS25, ,,편의점,경기도 김포시 김포한강2로 362,37.650861784633605,126.666685377785,,,,,,
GS25,포천일동점,,편의점,경기도 포천시 일동면 화동로 1048-2,37.9569597779616,127.317514472574,,,,,,
맥도날드,시화이마트점,,프렌차이즈,경기도 시흥시 정왕대로 210,37.3459320362184,126.73685615958901,,,,,,
GS25,김포우남점,김포우남점,편의점,경기도 김포시 김포한강2로 103,37.63637919173021,126.673572204449,,,,,,
GS25,부천괴안점,부천괴안점,편의점,경기도 부천시 안곡로 32,37.4789316292862,126.80582675867399,,,,,,
GS25,중앙성모점,,편의점,경기도 동두천시 동광로 51-1,37.9086813942264,127.05406250231701,,,,,,
GS25,석수두산점,,편의점,경기도 안양시 만안구 연현로 103,37.4333055031918,126.90181697245701,,,,,,
GS25,편의점신중동역점,,편의점,경기도 부천시 길주로 307,37.5034936719449,126.77674249125401,,,,,,
스타벅스, ,,프렌차이즈,경기도 고양시 덕양구 화랑로 29-1,37.6014138330048,126.870393068627,,,,,,
GS25,정왕제일점,,편의점,경기도 시흥시 역전로 33,37.3392793435739,126.755283367994,,,,,,
GS25,토당행복점,,편의점,경기도 고양시 덕양구 토당로 93,37.6232398073436,126.817376102726,,,,,,
GS25,포천내리점,,편의점,경기도 포천시 내촌면 내촌로 58-1,37.785289803977605,127.227147415829,,,,,,
GS25,일산후곡,,편의점,경기도 고양시 일산서구 일산로 523,37.676674706944496,126.76939281603998,,,,,,
GS25,평촌한가람점,,편의점,경기도 안양시 동안구 달안로 117,37.3978480736021,126.955428184798,,,,,,
GS25,동탄미래도점,동탄미래도점,편의점,경기도 화성시 동탄공원로 21-11,37.2007629187092,127.05623240231701,,,,,,
GS25,용인동부점,,편의점,경기도 용인시 처인구 동부로 144,37.2239062331428,127.222861407547,,,,,,
GS25,궐동대호점,,편의점,경기도 오산시 대호로71번길 28,37.158335371141,127.053528895229,,,,,,
GS25, ,시,편의점,경기도 안양시 만안구 장내로 150,37.3981164473515,126.92406057499599,,,,,,
GS25,하안으뜸점,,편의점,경기도 광명시 하안로 284,37.4627252287111,126.88358328658701,,,,,,
GS25,부천엠파이어점,,편의점,경기도 부천시 경인로137번가길 83,37.4845585987415,126.775457016796,,,,,,
GS25,NC소프트점,NC소프트점,편의점,경기도 성남시 분당구 대왕판교로644번길 12,37.399372213969606,127.10858214206199,,,,,,
GS25,원미부천로점,,편의점,경기도 부천시 부천로 331-6,37.513979663175895,126.78439886745701,,,,,,
GS25,용인포곡점,,편의점,경기도 용인시 처인구 포곡읍 둔전로47번길 21,37.2682610135483,127.21911351833401,,,,,,
GS25,동아대기숙사점,,편의점,경기도 안성시 삼죽면 동아예대길 47,37.0623339163394,127.353272935696,,,,,,
GS25,화성수기점,,편의점,경기도 화성시 봉담읍 최루백로 336,37.1979640262663,126.971153942831,,,,,,
GS25,참누리점,,편의점,경기도 수원시 영통구 법조로 134,37.291468346646795,127.072345087487,,,,,,
GS25,동두천부영점,동두천부영점,편의점,경기도 동두천시 동두천로 185,37.8981037202227,127.055187106549,,,,,,
GS25,수원세지로점,,편의점,"경기도 수원시 팔달구 세지로234번길 4, (인계동)",37.2718695043991,127.02413534466999,,,,,,
GS25,광명한결점,,편의점,경기도 광명시 사성로 25,37.4858468467905,126.860070648518,,,,,,
GS25,화도구암리점,,편의점,경기도 남양주시 화도읍 북한강로 1714,37.659930753691896,127.371563216222,,,,,,
GS25,안산보네르점,,편의점,경기도 안산시 단원구 안산천남로 211,37.30836033962029,126.84005912576299,,,,,,
GS25,동두천휴먼빌점,동두천휴먼빌점,편의점,경기도 동두천시 행선로 52,37.8931699184697,127.061276002169,,,,,,
GS25,오산스위첸점,,편의점,경기도 오산시 오산로 49-6,37.1317043564936,127.06790634802601,,,,,,
GS25,수택제일점,,편의점,경기도 구리시 검배로29번길 53,37.6007624534567,127.14432703375401,,,,,,
GS25,성포공원점,성포공원점,편의점,경기도 안산시 상록구 예술광장로 63,37.3266855329855,126.84532888570601,,,,,,
GS25, ,시,편의점,경기도 광명시 오리로 856,37.4747158965687,126.86724921407101,,,,,,
GS25,성남산호점,,편의점,경기도 성남시 수정구 모란로 79,37.440030272547396,127.125695133278,,,,,,
GS25,수원화홍점,,편의점,"경기도 수원시 팔달구 수원천로 357, (북수동)",37.285294698827,127.017477531927,,,,,,
GS25,행신행복점,,편의점,경기도 고양시 덕양구 충장로 134,37.6243875289183,126.83492796734501,,,,,,
GS25,주엽한사랑점,주엽한사랑점,편의점,경기도 고양시 일산서구 중앙로 1416,37.6697956075648,126.762943434832,,,,,,
GS25,광주승리점,,편의점,경기도 광주시 광남안로 28,37.391924241971296,127.221435201701,,,,,,
GS25,거모사랑점,,편의점,경기도 시흥시 도일로112번길 6,37.3403753231044,126.784426563782,,,,,,
GS25,정왕발레르텔점,정왕발레르텔점,편의점,경기도 시흥시 만해로 41,37.3316550703191,126.74577264210801,,,,,,
GS25,안산마이빌점,,편의점,경기도 안산시 단원구 고잔로 23-12,37.3204908887704,126.829301081677,,,,,,
GS25,소하휴먼시아점,,편의점,경기도 광명시 서원로 13,37.431597986104,126.884972294806,,,,,,
GS25,시흥정왕점,,편의점,경기도 시흥시 봉우재로11번길 1,37.34418099015,126.742494566831,,,,,,
GS25,안양과학대점,,편의점,경기도 안양시 만안구 양화로28번길 49,37.398211909870895,126.91576929974899,,,,,,
GS25,소사구청점,,편의점,경기도 부천시 경인옛로 61-1,37.47996936886629,126.798868154524,,,,,,
GS25,신포천대로점,,편의점,경기도 포천시 가산면 포천로 914,37.8493140244874,127.19718614232201,,,,,,
GS25,안양하이츠빌점,,편의점,경기도 안양시 만안구 만안로 264,37.4036247248565,126.92041260501301,,,,,,
GS25,마석우리점,,편의점,경기도 남양주시 화도읍 마석로61번길 18-1,37.656314705483396,127.30366085623001,,,,,,
GS25,파주명품점,,편의점,경기도 파주시 탄현면 여치길 16,37.7691155260394,126.69957980281201,,,,,,
GS25,위브스타점,,편의점,경기도 부천시 신흥로 140,37.4964474807245,126.778474598642,,,,,,
GS25,이천갈산점,,편의점,경기도 이천시 향교로 169,37.2853455950293,127.45571009451099,,,,,,
GS25,동탄캐슬점,,편의점,경기도 화성시 동탄반석로 229,37.2088875983704,127.074089237615,,,,,,
GS25,N동화교육점,,편의점,경기도 김포시 월곶면 곰바위로 37,37.7113793402065,126.54240231073601,,,,,,
GS25,광교센타점,,편의점,경기도 수원시 영통구 법조로149번길 171-3,37.2928440103689,127.069666465853,,,,,,
GS25,시흥유호점,,편의점,경기도 시흥시 비둘기공원5길 12,37.443236824622105,126.790324585029,,,,,,
GS25,양주가야점,,편의점,경기도 양주시 백석읍 양주산성로 545,37.7864715936742,126.99346421493401,,,,,,
GS25,남양주가곡점,,편의점,경기도 남양주시 화도읍 비룡로 395,37.68504620009521,127.307768745946,,,,,,
GS25,광교물풍선점,,편의점,경기도 수원시 영통구 센트럴파크로127번길 125,37.2939567387158,127.05430248274901,,,,,,
GS25,의왕오전점,,편의점,경기도 의왕시 보식골로 9,37.3590763125829,126.968913507109,,,,,,
GS25,오산스타점,,편의점,경기도 오산시 오산로 298-1,37.1535634822849,127.068820160497,,,,,,
GS25, ,성남메트로칸,편의점,경기도 성남시 중원구 성남대로 1147,37.432179443687794,127.12901809603599,,,,,,
GS25,연천청산점,연천청산점,편의점,경기도 연천군 청산면 청창로 175,38.009478233492395,127.084072851793,,,,,,
GS25,순천향대병원점,,편의점,경기도 부천시 조마루로 170,37.4983583083338,126.76209055342699,,,,,,
GS25,팽성안정점,,편의점,경기도 평택시 팽성읍 안정로29번길 33,36.9606416672588,127.046088432951,,,,,,
GS25,세교공단점,,편의점,경기도 평택시 세교산단로 18,37.008756146345796,127.080724824758,,,,,,
GS25,이천한솔점,,편의점,경기도 이천시 신둔면 원적로 132,37.31735374934971,127.40711161358699,,,,,,
스타벅스, ,,프렌차이즈,경기도 포천시 이동면 장암2길 26-2,38.0364656905245,127.36782405858,,,,,,
GS25,송우솔모루점,,편의점,경기도 포천시 소흘읍 솔모루로 55,37.827346390543,127.144579914734,,,,,,
GS25,장현사랑점,,편의점,경기도 남양주시 진접읍 봉현로 42,37.71719826854,127.17904784692399,,,,,,
GS25,광주태전점,,편의점,경기도 광주시 태봉로 9,37.3920875581064,127.23124756051,,,,,,
GS25,광명현진점,,편의점,경기도 광명시 목감로 88,37.4758614624323,126.84780860597701,,,,,,
GS25,운천본점,,편의점,경기도 포천시 영북면 운천로 25,38.0910843096433,127.27145484981399,,,,,,
GS25,광주순암로점,광주순암로점,편의점,경기도 광주시 순암로 76,37.3947802758725,127.24077470604601,,,,,,
GS25,정왕평안점,,편의점,경기도 시흥시 역전로302번길 20-6,37.3536216492936,126.740576273146,,,,,,
GS25,킨텍스3호점,,편의점,경기도 고양시 일산서구 한류월드로 407,37.663837258588295,126.742244215322,,,,,,
GS25,광명한결점,,편의점,경기도 광명시 사성로 2-1,37.485345556941,126.85761329521699,,,,,,
GS25, ,파주TOP,편의점,경기도 파주시 월롱면 엘씨디로8번길 38,37.811954381077705,126.775804595376,,,,,,
GS25,성남영성점,,편의점,경기도 성남시 중원구 둔촌대로 250,37.428239518072,127.14600073275899,,,,,,
GS25,파주도서관점,파주도서관점,편의점,경기도 파주시 쇠재로 30,37.749535362528896,126.769923245782,,,,,,
스타벅스, ,,프렌차이즈,경기도 안성시 일죽면 금일로 474,37.0938884955922,127.478894702405,,,,,,
GS25,광주도척점,,편의점,경기도 광주시 도척면 마도로 289,37.2964615637711,127.331828555659,,,,,,
GS25, ,,편의점,경기도 시흥시 검바위2로 31-1,37.4319773825238,126.795974577099,,,,,,
GS25,가좌으뜸점,,편의점,경기도 고양시 일산서구 가좌2로 22,37.6890464290834,126.72287285672701,,,,,,
GS25,성남황금점,,편의점,경기도 성남시 중원구 둔촌대로425번길 14,37.434075115883395,127.164443425536,,,,,,
GS25,안산상록점,,편의점,경기도 안산시 상록구 용신로 393,37.301879797295896,126.865898853367,,,,,,
GS25,행신샘터점,,편의점,경기도 고양시 덕양구 화신로 73,37.6194500459953,126.83859583225299,,,,,,
GS25,파주현대점,파주현대점,편의점,경기도 파주시 미래로 535,37.725616788836206,126.75050179786699,,,,,,
탐앤탐스,광명역사점,,프렌차이즈,경기도 광명시 광명역로 21,37.416368869363296,126.884836617584,,,,,,
탐앤탐스,수원경희대점,,프렌차이즈,"경기도 수원시 영통구 덕영대로 1701, (영통동)",37.2479666067388,127.07734227348301,,,,,,
GS25,동탄우남점,동탄우남점,편의점,경기도 화성시 동탄원천로 354-11,37.2187802734963,127.05791218366699,,,,,,
GS25,송내중안점,,편의점,경기도 부천시 송내대로42번길 58,37.4870275236294,126.756488198378,,,,,,
GS25, ,,편의점,경기도 평택시 안중읍 안중북로 97,36.9989140742597,126.922004555408,,,,,,
GS25,교하점,,편의점,경기도 파주시 교하로 1393,37.753339850954205,126.746200146291,,,,,,
GS25,청학주공점,,편의점,경기도 남양주시 별내면 청학로68번길 23-1,37.709624173575,127.119600071467,,,,,,
GS25,용인현대점,,편의점,경기도 용인시 처인구 중부대로 1142,37.2396739971736,127.172094154433,,,,,,
GS25,소사삼익점,,편의점,경기도 부천시 소안로 20,37.4762949765811,126.80260134584,,,,,,
GS25,시편의점,,편의점,경기도 평택시 포승읍 여술2길 32,36.9884033159249,126.844969461989,,,,,,
GS25,수지성북점,,편의점,경기도 용인시 수지구 성복2로 230,37.3199347409188,127.062190780538,,,,,,
맥도날드,모란역점,,프렌차이즈,경기도 성남시 중원구 성남대로 1147,37.432179443687794,127.12901809603599,,,,,,
GS25,정왕큰솔점,,편의점,경기도 시흥시 큰솔로 29,37.3404567975946,126.751584919831,,,,,,
GS25,양주대방점,,편의점,경기도 양주시 부흥로 1898-4,37.791757790382,127.07559486579099,,,,,,
GS25,금정본점,,편의점,경기도 군포시 당산로 166-1,37.365702233766896,126.942721949044,,,,,,
GS25,진접내각점,,편의점,경기도 남양주시 진접읍 내각1로73번길 6,37.7047828095945,127.165042899516,,,,,,
GS25,시용인기안점,,편의점,경기도 용인시 처인구 백암면 백암로 200,37.1645687172809,127.37536133125299,,,,,,
GS25,적성스타점,,편의점,경기도 파주시 적성면 솥뒤로 6,37.954824446069004,126.91850547568501,,,,,,
GS25,동탄산단점,,편의점,경기도 화성시 동탄면 동탄기흥로257번가길 24-8,37.1814647045439,127.091249414111,,,,,,
GS25,인재개발원점,,편의점,경기도 가평군 설악면 용문천길 251-56,37.698086191550495,127.484027719706,,,,,,
GS25,안성연지점,,편의점,경기도 안성시 금산2길 2,37.0116273264641,127.270998463462,,,,,,
GS25,편의점,,편의점,경기도 용인시 처인구 금학로241번길 1,37.2383045040201,127.19036730295099,,,,,,
GS25, ,,편의점,경기도 의정부시 신흥로240번길 18,37.7374481975542,127.044434735236,,,,,,
GS25,의정부역점,,편의점,경기도 의정부시 송산로1181번길 68,37.728881749625,127.083297062205,,,,,,
GS25,스카이빌점,,편의점,경기도 성남시 중원구 둔촌대로 274,37.4288008150251,127.148864290328,,,,,,
GS25,편의점,,편의점,"경기도 수원시 팔달구 창룡대로150번길 34, (우만동)",37.289872967283294,127.02738778205,,,,,,
GS25,고강타운점,,편의점,경기도 부천시 고강로154번길 67-5,37.5289507243743,126.82313172739201,,,,,,
GS25,평택성당점,,편의점,경기도 평택시 평택2로 60-1,36.996003666248896,127.091068070358,,,,,,
GS25,용인쌍용점,,편의점,경기도 용인시 기흥구 사은로126번길 8,37.2549188514058,127.118178062555,,,,,,
GS25,광명휴게소점,광명휴게소점,편의점,경기도 포천시 영중면 호국로 3045,38.014126587224,127.246434114641,,,,,,
GS25,화성복사꽃점,화성복사꽃점,편의점,경기도 화성시 향남읍 행정동로 101,37.1339483382251,126.924289866812,,,,,,
GS25,포천대방점,,편의점,경기도 포천시 소흘읍 호국로 425,37.811130753423,127.133841627759,,,,,,
GS25,G정왕IC점,,편의점,경기도 시흥시 서해안로 590,37.3713583692523,126.73841695631,,,,,,
GS25,양지남곡점,,편의점,경기도 용인시 처인구 양지면 남곡로 2,37.2323415134574,127.285986256628,,,,,,
버거킹,죽전SK점,,프렌차이즈,경기도 용인시 수지구 용구대로 2751,37.3313302914811,127.10840498453199,,,,,,
GS25,진사쌍용점,진사쌍용점,편의점,경기도 안성시 공도읍 진건중길 15-9,36.9936281584344,127.143649972062,,,,,,
GS25,파주맥금점,,편의점,경기도 파주시 방촌로 411,37.7822545525664,126.72288260969401,,,,,,
GS25,삼송아이파크점,삼송아이파크점,편의점,경기도 고양시 덕양구 세솔로 76,37.6508404349704,126.888988987719,,,,,,
GS25,군포당정본점,,편의점,경기도 군포시 봉성로 108,37.3523982307095,126.956453345511,,,,,,
GS25,분당금곡점,,편의점,경기도 성남시 분당구 성남대로171번길 17,37.3511150412249,127.10680529861601,,,,,,
GS25,수지월드마크점,,편의점,경기도 용인시 수지구 포은대로 467,37.3235954985849,127.100801271776,,,,,,
GS25,금광빌리지점,,편의점,경기도 성남시 중원구 자혜로16번길 32,37.447650362542504,127.16007689777399,,,,,,
GS25,율전상율점,,편의점,"경기도 수원시 장안구 덕영대로417번길 80, (율전동)",37.304043358570006,126.968424568764,,,,,,
GS25,수지수석점,,편의점,경기도 용인시 수지구 수지로296번길 47,37.321823119773896,127.094075231752,,,,,,
GS25,신갈타운점,,편의점,경기도 용인시 기흥구 신갈로84번길 29,37.2741332557269,127.108955937354,,,,,,
GS25,오남금호점,,편의점,경기도 남양주시 오남읍 진건오남로 470,37.6776181343786,127.20704349158001,,,,,,
GS25,오산법원점,,편의점,경기도 오산시 궐리사로 61,37.159282460155396,127.05930402307,,,,,,
GS25,서정마을점,,편의점,경기도 고양시 덕양구 서정마을1로 4-13,37.6186824576481,126.845766662901,,,,,,
GS25,일산역점,일산역점,편의점,경기도 고양시 일산서구 경의로 665,37.6811789714959,126.76931840616001,,,,,,
GS25,성남대성점,,편의점,경기도 성남시 수정구 수정남로144번길 15,37.4423441827547,127.14390798908501,,,,,,
GS25,안양임곡점,,편의점,경기도 안양시 동안구 임곡로 62,37.404817886532506,126.93373506318501,,,,,,
GS25,김포신곡점,김포신곡점,편의점,경기도 김포시 고촌읍 김포대로 326,37.600219196367505,126.771559276185,,,,,,
GS25,김포메카점,김포메카점,편의점,경기도 김포시 양촌읍 황금로 117,37.616479897817996,126.621256165697,,,,,,
GS25,G시화공단점,,편의점,경기도 시흥시 공단1대로 256,37.3349999711054,126.729072409882,,,,,,
GS25,내촌제일점,,편의점,경기도 부천시 수도로55번길 8,37.51453273897761,126.772535420917,,,,,,
GS25,덕양삼송점,덕양삼송점,편의점,경기도 고양시 덕양구 삼원로 5,37.6447221717165,126.877533476722,,,,,,
GS25,서천타운점,,편의점,경기도 용인시 기흥구 서천동로91번길 4,37.2335970316463,127.07195018770099,,,,,,
GS25,오포능평점,,편의점,경기도 광주시 오포읍 대명대길11번길 7,37.3572445608931,127.16635696598999,,,,,,
GS25,사기막골점,,편의점,경기도 성남시 중원구 순환로 234,37.4447225427694,127.17941235541599,,,,,,
GS25,시마두광장점,,편의점,경기도 고양시 일산동구 장백로 184,37.6512657341176,126.77714421322901,,,,,,
GS25,부천소사점,,편의점,경기도 부천시 부천로10번길 33,37.4850158410041,126.784834421432,,,,,,
GS25,동두천비바점,,편의점,경기도 동두천시 강변로664번길 45,37.9263035254294,127.052778947225,,,,,,
GS25,송탄서정로점,,편의점,경기도 평택시 서정로 266-1,37.0654054160208,127.062859683732,,,,,,
GS25,남동논현점,,편의점,경기도 안산시 단원구 예술대학로 171,37.3334089054266,126.836277481379,,,,,,
GS25, ,,편의점,"경기도 수원시 장안구 하률로25번길 5-8, (천천동)",37.303330440055795,126.97556326479601,,,,,,
GS25,선부제일점,,편의점,경기도 안산시 단원구 석수로4길 25,37.3415305196383,126.804947603504,,,,,,
GS25,기흥써니점,,편의점,경기도 용인시 기흥구 고매로 16,37.231201932480104,127.110948943363,,,,,,
GS25,인계예술점,,편의점,"경기도 수원시 팔달구 효원로 105, (매교동)",37.2661141584343,127.01357777976101,,,,,,
GS25,안성1공단점,,편의점,경기도 안성시 신봉안길 9,37.015829448035795,127.2540457541,,,,,,
GS25,우미린점,,편의점,경기도 김포시 김포한강5로 417,37.6481625046879,126.625407231728,,,,,,
GS25,포천소흘점,,편의점,경기도 포천시 소흘읍 솔모루로 86-1,37.828827239684294,127.147504977709,,,,,,
GS25,원당대림점,,편의점,경기도 고양시 덕양구 호국로 859,37.6595089371561,126.83855004339199,,,,,,
GS25,편의점,,편의점,경기도 고양시 일산서구 호수로 817,37.6679823561386,126.751616105658,,,,,,
GS25,수원매화점,,편의점,"경기도 수원시 영통구 동수원로507번길 24, (매탄동)",37.27374676053729,127.045500997765,,,,,,
GS25,시편의점,시편의점,편의점,경기도 광명시 광이로 68,37.4844337852148,126.859300624743,,,,,,
GS25, ,,편의점,경기도 안산시 단원구 화랑로 366,37.3210230712785,126.828446639107,,,,,,
GS25,이천외암점,,편의점,경기도 이천시 서희로82번길 25,37.282727085530794,127.44486894253599,,,,,,
GS25,수지금호점,,편의점,경기도 용인시 수지구 상현로 59,37.3054425592087,127.079054498954,,,,,,
GS25,기흥공세점,,편의점,경기도 용인시 기흥구 공세로90번길 1,37.2328464318757,127.10914903617201,,,,,,
GS25,고색대성점,고색대성점,편의점,"경기도 수원시 권선구 매송고색로711번길 10, (고색동)",37.251853031499294,126.982009556622,,,,,,
GS25,편의점,,편의점,경기도 화성시 향남읍 행정동로 22,37.126153775808,126.927269858125,,,,,,
GS25,청강대점,,편의점,경기도 이천시 마장면 청강가창로 414,37.2124561448922,127.358832804056,,,,,,
GS25, ,시,편의점,경기도 용인시 기흥구 보정로 88,37.3175557828352,127.11602527815701,,,,,,
GS25,궐동본점,,편의점,경기도 오산시 궐리사로 96,37.158184101364604,127.06284153356701,,,,,,
GS25,광교래미안점,,편의점,경기도 수원시 영통구 센트럴파크로 60,37.29104978464579,127.06040656246,,,,,,
GS25,일산동국중앙점,,편의점,경기도 고양시 일산동구 동국로 102,37.6811656042787,126.803034261408,,,,,,
GS25,광주회덕점,,편의점,경기도 광주시 행정타운로138번길 3,37.4276083293825,127.24384427506901,,,,,,
GS25,인창대림점,,편의점,경기도 구리시 동구릉로 64,37.6056308367934,127.134814356868,,,,,,
GS25,구리명동점,,편의점,경기도 구리시 경춘로 111,37.6012260551613,127.127651363344,,,,,,
GS25,편의점,편의점,편의점,경기도 파주시 중앙로 213,37.7555441421248,126.78024134273001,,,,,,
GS25,안양대점,,편의점,경기도 안양시 만안구 삼덕로 68,37.394697364928206,126.918677215392,,,,,,
GS25,청학제일점,,편의점,경기도 남양주시 별내면 청학로114번길 37,37.711696135961105,127.11473262887199,,,,,,
GS25,포천가산점,,편의점,경기도 포천시 군내면 마전길 25-16,37.85208494818121,127.203201367806,,,,,,
GS25,안정로데오점,안정로데오점,편의점,경기도 평택시 팽성읍 안정순환로 118,36.959086039667795,127.04314336408001,,,,,,
GS25,시흥군자점,시흥군자점,편의점,경기도 시흥시 군자로533번길 3-9,37.3443428339376,126.785581488647,,,,,,
GS25,의왕고천점,,편의점,경기도 의왕시 효행로 4,37.3481408290485,126.974503262293,,,,,,
GS25,편의점삼성SDS점,,편의점,"경기도 수원시 영통구 삼성로168번길 15, (매탄동)",37.2580556075752,127.057479637502,,,,,,
GS25,금정본점,,편의점,경기도 군포시 당산로 1,37.3517327893728,126.944419097157,,,,,,
GS25,고암사랑점,,편의점,경기도 양주시 청담로 308-6,37.8264119195341,127.06660922175699,,,,,,
GS25, ,동두천비바,편의점,경기도 의정부시 비우로 67,37.758351559259296,127.034451327445,,,,,,
GS25,화성신일점,,편의점,경기도 화성시 효행로291번길 24,37.223114260338605,126.976435154835,,,,,,
스타벅스, ,,프렌차이즈,경기도 용인시 처인구 금령로85번길 20-8,37.2370225058939,127.20597910556101,,,,,,
GS25,매탄우리점,,편의점,"경기도 수원시 영통구 신원로 217, (매탄동)",37.2552733776325,127.06001688556299,,,,,,
GS25,인창삼보점,,편의점,경기도 구리시 건원대로 92,37.6105237391498,127.13977526692,,,,,,
GS25,중동현대점,,편의점,경기도 부천시 소향로 123,37.5024980793665,126.761615053859,,,,,,
GS25,의정궁전점,,편의점,경기도 의정부시 범골로145번길 28,37.7373704709124,127.041519912338,,,,,,
GS25,오남상일점,오남상일,편의점,경기도 남양주시 오남읍 진건오남로 552,37.6827424430413,127.21068494259899,,,,,,
GS25,야탑타운점,야탑타운점,편의점,경기도 광주시 고불로 118,37.3934173119236,127.225135384626,,,,,,
GS25,의정리빙점,,편의점,경기도 의정부시 신흥로208번길 14,37.7346169879316,127.044187494352,,,,,,
GS25,은현운암점,,편의점,경기도 양주시 은현면 화합로 827,37.8698975821334,127.02041540538201,,,,,,
GS25,용인희성점,,편의점,경기도 용인시 처인구 금령로 135,37.2356708186746,127.211369121717,,,,,,
GS25,의정송산점,,편의점,경기도 의정부시 태평로 52,37.7370286093981,127.051610524129,,,,,,
GS25,성남성수점,성남성수,편의점,경기도 성남시 수정구 모란로 28,37.4357753404736,127.127880328566,,,,,,
GS25,오남푸른솔점,,편의점,경기도 남양주시 오남읍 진건오남로 735-17,37.6942718743413,127.210109174263,,,,,,
GS25,화성대우점,,편의점,경기도 화성시 영통로26번길 20,37.233840356836296,127.066222187349,,,,,,
GS25,중앙주공점,,편의점,경기도 안산시 단원구 당곡3로 20,37.3260812235149,126.839741632675,,,,,,
GS25,상동한림점,,편의점,경기도 부천시 소향로37번길 31-15,37.5047319006229,126.751274727342,,,,,,
GS25,이천현진점,,편의점,경기도 이천시 안흥로 53,37.282522720825,127.45518911584499,,,,,,
GS25,김포고촌점,,편의점,경기도 김포시 고촌읍 고송로 20,37.6046961462119,126.76885821512501,,,,,,
GS25,사동제일점,,편의점,경기도 안산시 상록구 이화2길 21,37.2990160565085,126.857640332659,,,,,,
GS25,수원파크빌점,,편의점,"경기도 수원시 팔달구 향교로 52, (매산로2가)",37.2689201030235,127.006460542395,,,,,,
GS25,동탄이지점,동탄이지점,편의점,경기도 화성시 동탄원천로 315-33,37.2125816807488,127.058034325143,,,,,,
GS25,동백백현점,동백백현점,편의점,경기도 용인시 기흥구 동백8로131번길 9,37.2828549048175,127.16442658379499,,,,,,
GS25, ,송우플러스,편의점,경기도 의정부시 행복로 19,37.7405915401668,127.048739886981,,,,,,
GS25,원당중앙점,,편의점,경기도 고양시 덕양구 호국로790번길 31,37.6558614621007,126.837802222099,,,,,,
GS25,오산궐동점,,편의점,경기도 오산시 궐동로 57,37.1571285861164,127.06041150831498,,,,,,
GS25,시화정왕점,시,편의점,경기도 시흥시 옥구상가1길 23,37.3531568816062,126.721610260833,,,,,,
GS25,장항중앙점,장항중앙,편의점,경기도 고양시 일산동구 중앙로1275번길 86-1,37.6586130824639,126.76801368950399,,,,,,
GS25,김포초당점,,편의점,경기도 김포시 김포한강2로 113,37.6376461071048,126.668462487966,,,,,,
GS25,남양주대명점,,편의점,경기도 남양주시 경춘로1306번길 9,37.6492984558261,127.238508603706,,,,,,
GS25,구운번영점,,편의점,"경기도 수원시 권선구 구운로14번길 8-4, (구운동)",37.2771897530135,126.97657165067801,,,,,,
GS25,송내점,,편의점,경기도 부천시 부일로221번길 26,37.48949965718379,126.75509028899499,,,,,,
GS25,안산매화점,,편의점,경기도 안산시 상록구 매화로4길 1,37.3040291293825,126.861704258112,,,,,,
GS25,점촌로점,,편의점,경기도 평택시 점촌로19번길 34,37.0649040045541,127.056445148734,,,,,,
GS25,이천신둔점,,편의점,경기도 이천시 신둔면 경충대로 3172,37.309560996139005,127.402096244753,,,,,,
GS25,궐동상미점,,편의점,경기도 오산시 궐동로 9,37.158304152813,127.055263090619,,,,,,
GS25,편의점,,편의점,경기도 고양시 덕양구 화신로 309,37.631559478763705,126.826726883115,,,,,,
GS25, ,의왕주공,편의점,경기도 의왕시 포일세거리로 21,37.3970976461961,126.986192264431,,,,,,
GS25,편의점우만파크점,,편의점,"경기도 수원시 팔달구 권광로340번길 79, (우만동)",37.2761273833055,127.04237003975,,,,,,
GS25,평택송화점,,편의점,경기도 평택시 팽성읍 동서촌로 74,36.9644320934824,127.060359217308,,,,,,
GS25,성남상원점,,편의점,경기도 성남시 중원구 은행로 4,37.454802481392896,127.162280103887,,,,,,
GS25,인창삼보점,인창삼보점,편의점,경기도 구리시 건원대로 56,37.607798667740795,127.140474884515,,,,,,
GS25,덕양관산점,,편의점,경기도 고양시 덕양구 통일로 752,37.687554028171704,126.866899575117,,,,,,
GS25,김포감정점,,편의점,경기도 김포시 중봉1로 12,37.6227106796093,126.699449937311,,,,,,
GS25, ,시,편의점,경기도 오산시 궐리사로 61,37.159282460155396,127.05930402307,,,,,,
GS25,수지거묵점,수지거묵점,편의점,경기도 용인시 수지구 포은대로 313,37.3152881100244,127.08676402551,,,,,,
GS25,의정청사점,,편의점,경기도 의정부시 청사로5번길 8-17,37.7495910523238,127.06998066948401,,,,,,
GS25, ,시,편의점,경기도 가평군 조종면 현창로38번길 10,37.81894921685421,127.34893204152701,,,,,,
GS25,대야영남점,,편의점,경기도 시흥시 복지로120번길 8,37.448899538305795,126.793375257777,,,,,,
GS25,남양주진주점,,편의점,경기도 남양주시 오남읍 진건오남로 632,37.6894975695203,127.212983087025,,,,,,
GS25,정왕다솜점,정왕다솜점,편의점,경기도 시흥시 마유로 400-18,37.35039416342671,126.742108764186,,,,,,
GS25,안양사랑점,,편의점,경기도 안양시 동안구 관평로358번길 45,37.406312166870606,126.961918498578,,,,,,
GS25,석포공단점,,편의점,경기도 화성시 장안면 매바위로 356,37.1428922682194,126.81700593679899,,,,,,
GS25,김포귀전점,김포귀전점,편의점,경기도 김포시 통진읍 월하로 519,37.7125335094419,126.613433166291,,,,,,
GS25,진안제일점,,편의점,경기도 화성시 병점중앙로156번길 3,37.2119737658407,127.038449529645,,,,,,
GS25,화정보람점,,편의점,경기도 고양시 덕양구 은빛로29번길 31-24,37.63976723528471,126.830302898379,,,,,,
GS25,공세빌리지점,공세빌리지점,편의점,경기도 용인시 기흥구 한일로9번길 3,37.2434243616368,127.10305082141899,,,,,,
GS25,시화청솔점,,편의점,경기도 시흥시 중심상가로 128,37.3471251031085,126.73130588639499,,,,,,
GS25,장항공단점,,편의점,경기도 고양시 일산동구 장항로225번길 14,37.6410224144608,126.773788307955,,,,,,
GS25,의정창원점,,편의점,경기도 의정부시 의정로 27,37.7351725806107,127.033867499518,,,,,,
GS25,죽전월드점,,편의점,경기도 용인시 수지구 푸른솔로 76,37.3252182175472,127.118869209897,,,,,,
GS25,흥덕사랑점,,편의점,경기도 용인시 기흥구 흥덕2로 42,37.271474090991504,127.073616511786,,,,,,
GS25,의왕대림점,,편의점,경기도 의왕시 계원대학로 10,37.3795252448125,126.97243880812,,,,,,
GS25,백석동문점,,편의점,경기도 고양시 일산동구 경의로 25-37,37.6390802634321,126.788130514075,,,,,,
GS25,파주금촌점,,편의점,경기도 파주시 금빛로 42,37.7524933239236,126.767593395405,,,,,,
GS25,수원성대점,,편의점,"경기도 수원시 장안구 서부로2126번길 9, (율전동)",37.2981738742382,126.972170482406,,,,,,
GS25,부천원종고점,,편의점,경기도 부천시 성오로160번길 48,37.5272568782234,126.799863885295,,,,,,
GS25,군포흥안점,,편의점,경기도 군포시 군포로456번길 14,37.346573618442896,126.94486378018499,,,,,,
GS25,상록신안점,,편의점,경기도 안산시 상록구 샘골로 101,37.2929282174064,126.862672304035,,,,,,
GS25,안성주은점,,편의점,경기도 안성시 대학로 64,37.0140274531265,127.26710989815001,,,,,,
GS25,군포번영점,,편의점,경기도 군포시 금산로 1,37.3627675864256,126.941024639932,,,,,,
GS25,식사자이2점,,편의점,경기도 고양시 일산동구 위시티4로 45,37.6788082913141,126.81585966884899,,,,,,
GS25,성남중원점,편의점,편의점,경기도 성남시 중원구 산성대로 330-4,37.4426266881359,127.15310380978501,,,,,,
GS25,장안거북점,,편의점,"경기도 수원시 장안구 팔달로279번길 16, (영화동)",37.290579585454005,127.014769728454,,,,,,
GS25,사동사랑점,,편의점,경기도 안산시 상록구 평안로3길 8,37.2828701178544,126.853114339878,,,,,,
GS25, ,동작노량,편의점,경기도 포천시 원모루로 31,37.8905781222866,127.192918228362,,,,,,
GS25,사동원룸점,,편의점,경기도 안산시 상록구 석호로 197,37.2954861213881,126.85321606997,,,,,,
GS25,광교데시앙점,,편의점,경기도 수원시 영통구 광교로 114,37.2906172412379,127.045761596849,,,,,,
GS25,향남우리점,,편의점,경기도 화성시 향남읍 행정서로3길 18-4,37.1311070114452,126.917048540938,,,,,,
GS25, ,시,편의점,경기도 구리시 검배로6번길 24,37.599939064584106,127.140134969314,,,,,,
GS25,성원점,성원점,편의점,경기도 평택시 탄현1로 97,37.06857342092,127.053284774051,,,,,,
GS25, ,시,편의점,경기도 안양시 동안구 경수대로539번길 22,37.370753080986,126.956458817589,,,,,,
GS25,호평메인점,,편의점,경기도 남양주시 의안로260번길 16,37.6498268667356,127.245019353939,,,,,,
GS25,영통산남점,,편의점,"경기도 수원시 영통구 동수원로514번길 43-24, (매탄동)",37.2726941436013,127.04906606681699,,,,,,
GS25,남양브릭스점,,편의점,경기도 남양주시 경춘로 368,37.6046011566602,127.155619886268,,,,,,
GS25,일산테크빌점,,편의점,경기도 고양시 일산동구 일산로 142,37.6499136022342,126.793711166665,,,,,,
GS25,화성향남IC점,,편의점,경기도 화성시 향남읍 발안로 712,37.12473043043221,126.982510442071,,,,,,
GS25,분당그린점,,편의점,경기도 성남시 분당구 불정로376번길 31,37.3721047401249,127.13886967739201,,,,,,
GS25,광주새능점,,편의점,경기도 광주시 순암로 150,37.39690548343079,127.233581435749,,,,,,
GS25,시화공단점,,편의점,경기도 시흥시 마유로 226,37.33765238815,126.728542465814,,,,,,
GS25,비봉구포점,,편의점,경기도 화성시 비봉면 푸른들판로 1657,37.2498755249985,126.872168211014,,,,,,
GS25,김포서안점,김포서안점,편의점,경기도 김포시 통진읍 서암로 85,37.692738850073795,126.59895998120399,,,,,,
GS25,수원영헌점,,편의점,"경기도 수원시 팔달구 효원로265번길 20, (인계동)",37.2630256380858,127.031307012177,,,,,,
GS25, ,,편의점,경기도 부천시 옥산로 120,37.504090455978705,126.780431105866,,,,,,
GS25,안양타워점,,편의점,경기도 안양시 만안구 안양로247번길 12,37.3946345843762,126.923647310198,,,,,,
GS25,평촌목련점,,편의점,경기도 안양시 동안구 동안로 97,37.387523790347096,126.95259020010499,,,,,,
GS25,의왕까치점,,편의점,경기도 의왕시 부곡중앙남6길 95,37.3167593105057,126.954249860076,,,,,,
GS25,편의점,,편의점,"경기도 수원시 권선구 세권로 40, (세류동)",37.259324121556794,127.008683462577,,,,,,
GS25,중동미리내점,,편의점,경기도 부천시 소향로 227,37.5009786010338,126.773153185672,,,,,,
GS25,토당본점,,편의점,경기도 고양시 덕양구 지도로125번길 9-20,37.627251822857296,126.82212720349199,,,,,,
GS25,오산센타점,,편의점,경기도 오산시 원동로37번길 35,37.145070101548,127.070488951789,,,,,,
GS25,수원본점,,편의점,"경기도 수원시 팔달구 중부대로143번길 11, (우만동)",37.2788814245163,127.03199468576099,,,,,,
GS25,남양주청학점,,편의점,경기도 남양주시 별내면 청학로중앙길 9,37.7086871284925,127.11839763818999,,,,,,
GS25,고촌타운점,고촌타운점,편의점,경기도 김포시 고촌읍 장차로5번길 4,37.6028698358733,126.769986828805,,,,,,
GS25,화성서부점,화성서부,편의점,경기도 화성시 남양읍 남양로 547,37.1888124208289,126.820693701161,,,,,,
GS25,평택늘푸른점,,편의점,경기도 평택시 참이슬길 14,36.9895190895109,127.116611791103,,,,,,
GS25,문산중앙병원점,,편의점,경기도 파주시 문산읍 개포래로 50,37.8540414320806,126.782949529165,,,,,,
GS25,성남앙뜨점,,편의점,경기도 성남시 중원구 광명로 55,37.4342431347015,127.135186450137,,,,,,
GS25,서해그랑블점,,편의점,경기도 시흥시 정왕신길로49번길 37,37.361053340367896,126.728599277591,,,,,,
GS25, ,,편의점,경기도 의왕시 계원대학로 31,37.379827371103794,126.97506559346,,,,,,
GS25,성남성일,,편의점,경기도 성남시 중원구 시민로77번길 1,37.435456075951706,127.147105237933,,,,,,
GS25,김포운양점,,편의점,경기도 김포시 김포한강11로 288-5,37.6551856050071,126.68182789845699,,,,,,
GS25,가평설악점,,편의점,경기도 가평군 설악면 신천중앙로 129,37.6778544682245,127.489518841645,,,,,,
GS25,파주금승점,,편의점,경기도 파주시 탄현면 방촌로 1057,37.8257971886631,126.737739553963,,,,,,
GS25,연풍점,,편의점,경기도 파주시 파주읍 술이홀로 414,37.82992204279179,126.832793975659,,,,,,
GS25,화성스타점,,편의점,경기도 화성시 정남면 만년로 393,37.1570549754495,126.981683363431,,,,,,
GS25,세류중앙점,세류중앙,편의점,"경기도 수원시 권선구 세지로77번길 17, (세류동)",37.2591124900504,127.01680310932501,,,,,,
GS25,포천가산점,,편의점,경기도 포천시 가산면 가산로 307,37.8453206166703,127.183799260802,,,,,,
맥도날드,심곡DT점,,프렌차이즈,경기도 부천시 경인로 170,37.483603761051995,126.774613281149,,,,,,
GS25,편의점,,편의점,경기도 하남시 하남대로 412,37.5113754725605,127.226281710657,,,,,,
GS25,에버랜드점,,편의점,경기도 용인시 처인구 포곡읍 성산로 679,37.2882727614271,127.213414401679,,,,,,
탐앤탐스,율동공원점,,프렌차이즈,경기도 성남시 분당구 문정로 138,37.3821261319215,127.151526281282,,,,,,
GS25,성결사거리점,,편의점,경기도 안양시 만안구 성결대학로 4,37.383532694334704,126.93350581937,,,,,,
GS25,복정제일점,,편의점,경기도 성남시 중원구 은이로24번길 1,37.4566175438193,127.16665678353998,,,,,,
GS25,의정우정점,,편의점,경기도 의정부시 경의로55번길 16,37.7337856147808,127.04166823283501,,,,,,
GS25,광주삼지곡점,광주삼지곡광주삼지곡점,편의점,경기도 광주시 삼지곡길 56-9,37.4159764911319,127.202862450251,,,,,,
GS25,편의점,,편의점,경기도 오산시 오산대역로132번길 31-4,37.1695629921088,127.059165344226,,,,,,
GS25,월곶풍림점,,편의점,경기도 시흥시 월곶중앙로14번길 87,37.393777179644,126.739328722975,,,,,,
GS25,운정해솔점,운정해솔점,편의점,경기도 파주시 와석순환로 380,37.7230481659958,126.74873004901,,,,,,
GS25,중동한라점,,편의점,경기도 부천시 계남로 127,37.5084955450587,126.76300897178699,,,,,,
GS25,편의점,,편의점,경기도 남양주시 호평로46번안길 1,37.655089283227895,127.245068074447,,,,,,
GS25,김포센트럴점,,편의점,경기도 김포시 김포한강9로 73,37.643334182226205,126.625496218493,,,,,,
GS25,김포감정점,,편의점,경기도 김포시 봉화로181번길 31-14,37.6256972126973,126.69901273777599,,,,,,
GS25,덕양용두점,,편의점,경기도 고양시 덕양구 서오릉로 532,37.6303338214938,126.882383553429,,,,,,
GS25,평택안중점,,편의점,경기도 평택시 안중읍 서동대로 1907,37.000641412221206,126.956988667882,,,,,,
GS25,의정창원점,의정창원,편의점,경기도 의정부시 신흥로 222,37.7358108961496,127.04363891283,,,,,,
GS25,동두천중앙점,,편의점,경기도 동두천시 중앙로 217,37.901002179473,127.052603015876,,,,,,
GS25,평택배미점,,편의점,경기도 평택시 평택5로20번길 34,36.9895266163411,127.11399427426001,,,,,,
GS25,북리공단점,,편의점,경기도 용인시 처인구 남사면 경기동로 266,37.140287006072995,127.155000198001,,,,,,
맥도날드, ,부천원종DT점,프렌차이즈,경기도 부천시 소사로 689,37.5177698832648,126.804393607961,,,,,,
GS25,상록부곡점,,편의점,경기도 안산시 상록구 부곡로 156,37.335437416358296,126.86514624168699,,,,,,
GS25,명지대명진당,명지대명진당,편의점,경기도 용인시 처인구 명지로 116,37.221803918625895,127.190171860727,,,,,,
GS25,용문수리점,,편의점,경기도 양평군 용문면 용문로 388,37.4861051468828,127.596045553742,,,,,,
GS25,운정점,,편의점,경기도 파주시 와석순환로 133,37.7121256462255,126.745114362959,,,,,,
GS25,운정동문점,운정동문,편의점,경기도 파주시 금바위로 100,37.732935431216504,126.757559978557,,,,,,
GS25,송탄우림점,,편의점,경기도 평택시 방여울로 11,37.0387388025285,127.085657914307,,,,,,
GS25,운정본점,,편의점,경기도 파주시 미래로 562,37.728901370642,126.752670038918,,,,,,
GS25,S부천시청역점,,편의점,경기도 부천시 길주로 210,37.5035730349772,126.765318238342,,,,,,
GS25,광주매산점,,편의점,경기도 광주시 오포읍 매자리길 11,37.3572047232131,127.247790858459,,,,,,
GS25,포천본점,,편의점,경기도 포천시 신북면 호국로 2135-8,37.9401833258442,127.22996517420201,,,,,,
GS25, ,성남제일,편의점,경기도 성남시 수정구 산성대로283번길 8,37.442023084506204,127.14810429544501,,,,,,
GS25,매탄삼성점,,편의점,"경기도 수원시 영통구 삼성로 144, (매탄동)",37.2561857988152,127.05577815889099,,,,,,
GS25,이천화성점,,편의점,경기도 이천시 향교로 144-1,37.2837497171873,127.453556322337,,,,,,
GS25,시화금강점,시화금강점,편의점,경기도 시흥시 중심상가로 202-6,37.3433895897404,126.736718178199,,,,,,
GS25,이천으뜸점,,편의점,경기도 이천시 이섭대천로 1218,37.2790064830214,127.447005011795,,,,,,
GS25,금촌중앙점,,편의점,경기도 파주시 후곡로 50,37.753211868894894,126.769102077041,,,,,,
GS25,호평프라자점,,편의점,경기도 남양주시 늘을3로 65-12,37.6602431489131,127.247872059849,,,,,,
GS25,오산주공점,,편의점,경기도 오산시 오산대역로 232,37.1704766938966,127.06759923826,,,,,,
GS25,목동대명점,,편의점,경기도 광주시 광남안로 131,37.3846085719443,127.214791888787,,,,,,
GS25,시행신단비점,,편의점,경기도 고양시 덕양구 무원로6번길 36,37.6140316239402,126.83369638927499,,,,,,
GS25,풍동제일점,풍동제일점,편의점,경기도 고양시 일산동구 숲속마을1로 116,37.6713241935551,126.80102731855301,,,,,,
GS25,화성우정점,화성우정점,편의점,경기도 화성시 우정읍 남양만로 696,37.0448751827912,126.795944688507,,,,,,
GS25,에스철산역점,,편의점,경기도 광명시 철산로 13,37.4761106745156,126.86799695729201,,,,,,
GS25,동탄세비앙점,,편의점,경기도 화성시 삼성전자로 8,37.218598417524206,127.078319798517,,,,,,
GS25, ,,편의점,경기도 김포시 양촌읍 고음달로 149,37.6183019240716,126.606089589901,,,,,,
스타벅스, ,,프렌차이즈,경기도 평택시 평택로 99,36.995168983839605,127.083303792302,,,,,,
GS25,보정SJ점,,편의점,경기도 용인시 기흥구 죽전로 39,37.320740410209,127.112919079331,,,,,,
GS25, ,,편의점,경기도 파주시 번영로 37,37.7576059581615,126.768836345454,,,,,,
GS25,의왕청계점,의왕청계점,편의점,경기도 의왕시 양지편1로 42,37.3910887289167,126.994776938369,,,,,,
GS25,장기공원점,,편의점,경기도 김포시 김포한강2로24번길 78-31,37.6464460885989,126.67701922854401,,,,,,
GS25,파주첼시점,,편의점,경기도 파주시 탄현면 여치길 7,37.7688854372674,126.699141179149,,,,,,
GS25,안산일동점,,편의점,경기도 안산시 상록구 도매시장로 116,37.3153429191722,126.86507611975,,,,,,
GS25,운정가람점,,편의점,경기도 파주시 미래로602번길 11,37.731380963868205,126.751993155795,,,,,,
GS25,태안남산점,,편의점,경기도 화성시 안녕남로 9,37.1985359576333,126.985226662691,,,,,,
GS25,여주창리점,,편의점,경기도 여주시 여흥로88번길 9,37.294950682681396,127.63352414315399,,,,,,
GS25,군포으뜸점,군포으뜸점,편의점,경기도 군포시 당산로38번길 4,37.3550361357338,126.94502752613701,,,,,,
GS25, ,문산주공,편의점,경기도 파주시 문산읍 방촌로 1662,37.862461869313,126.780844996559,,,,,,
GS25,중동길주점,,편의점,경기도 부천시 길주로 275,37.5038904443093,126.773297804038,,,,,,
GS25,김포가현점,,편의점,경기도 김포시 통진읍 가현로 253,37.68239110993029,126.596320458118,,,,,,
GS25,의정태평점,,편의점,경기도 의정부시 태평로 24,37.7350320408529,127.04983209659201,,,,,,
GS25,광주삼동점,광주삼동,편의점,경기도 광주시 고불로 464,37.4105104742317,127.19938464788099,,,,,,
GS25,평택원정점,,편의점,경기도 평택시 포승읍 포승원정길 41,36.995745467773,126.841072480306,,,,,,
GS25,향남신도시점,향남신도시점,편의점,경기도 화성시 향남읍 행정죽전로1길 46,37.1253887979623,126.922407897471,,,,,,
GS25,금오2단지점,금오2단지점,편의점,경기도 의정부시 하금로 41,37.7539892757575,127.05991653437599,,,,,,
GS25,평택송탄로점,평택송탄로점,편의점,경기도 평택시 송탄2로 64,37.073851463614,127.058628481018,,,,,,
GS25,자이베스트점,,편의점,경기도 고양시 일산동구 위시티2로11번길 45,37.6787847054746,126.812617814967,,,,,,
GS25,화정아카데미점,,편의점,경기도 고양시 덕양구 화중로104번길 16,37.6360351776567,126.83193627616899,,,,,,
GS25,테마동물원쥬쥬점,,편의점,경기도 고양시 덕양구 원당로458번길 7-42,37.6901178574387,126.85528422330799,,,,,,
GS25,장호원진암점,,편의점,경기도 이천시 장호원읍 서동대로 8763,37.1155473104192,127.608892368024,,,,,,
GS25,기흥상갈점,,편의점,경기도 용인시 기흥구 상갈로 31,37.2691538827845,127.108247915886,,,,,,
GS25,LG이노텍3점,,편의점,경기도 파주시 문산읍 월롱산단2길 19,37.8382815962979,126.77931178047899,,,,,,
GS25,동탄나루점,동탄나루점,편의점,경기도 화성시 동탄솔빛로 48,37.193139703879396,127.073369216944,,,,,,
GS25,포천태환점,,편의점,경기도 포천시 소흘읍 호국로429번길 8,37.812111689835,127.133682525779,,,,,,
GS25, ,,편의점,"경기도 수원시 권선구 일월천로10번길 21, (구운동)",37.2831779988453,126.97403218048201,,,,,,
나들가게, ,,편의점,"경기도 수원시 팔달구 경수대로495번길 19, (인계동)",37.2704303148829,127.026634449263,,,,,,
GS25,평촌한양점,,편의점,경기도 안양시 동안구 시민대로 295,37.395597333127,126.962811686606,,,,,,
GS25,원미스타점,,편의점,경기도 부천시 부일로495번길 43,37.4874909004278,126.785438852945,,,,,,
GS25,시화정왕점,,편의점,경기도 시흥시 옥구상가3길 25,37.354158707977,126.72259784283001,,,,,,
GS25,안산선일점,,편의점,경기도 안산시 단원구 지곡로2길 31,37.335823611066395,126.80463177905199,,,,,,
GS25,인창주공점,,편의점,경기도 구리시 건원대로76번길 39,37.610683917311704,127.140736166913,,,,,,
스타벅스, ,,프렌차이즈,경기도 의정부시 행복로 7,37.739586565271296,127.04814006604201,,,,,,
GS25,광명마사4층점,,편의점,경기도 광명시 디지털로 29,37.474155267106795,126.87080761127199,,,,,,
GS25,산본경원점,,편의점,경기도 군포시 산본로 329,37.360010925179,126.933071158325,,,,,,
GS25,오남두산점,,편의점,경기도 남양주시 오남읍 진건오남로 781-9,37.696326312909605,127.20475782440501,,,,,,
GS25,마장제일점,,편의점,경기도 이천시 마장면 오천로 22,37.2544323344584,127.350980710213,,,,,,
GS25,금사강점,,편의점,경기도 화성시 송산면 송산포도로 75,37.2131779961105,126.740210759456,,,,,,
탐앤탐스,수원권선24시점,,프렌차이즈,"경기도 수원시 권선구 경수대로 392, (권선동)",37.2611967235884,127.02475783413601,,,,,,
GS25,동두천태양점,,편의점,경기도 동두천시 어수로 75,37.9029546088549,127.05114523988001,,,,,,
GS25,안산지곡점,,편의점,경기도 안산시 단원구 지곡로 106-1,37.3398273823109,126.796047936112,,,,,,
GS25,광주목동점,,편의점,경기도 광주시 광남안로 8,37.3928475660383,127.223447207992,,,,,,
GS25,편의점,,편의점,경기도 남양주시 화도읍 녹촌로 53,37.6444908072128,127.297221549546,,,,,,
GS25,포천내촌점,,편의점,경기도 포천시 내촌면 금강로 2258,37.7801865543641,127.226621585434,,,,,,
GS25,용인한보라점,용인한보라점,편의점,경기도 용인시 기흥구 한보라1로 91,37.247981193049995,127.10626565117799,,,,,,
GS25,수원곡반정점,,편의점,"경기도 수원시 권선구 경수대로54번길 58, (곡반정동)",37.2341432342636,127.02443024012899,,,,,,
GS25,성남동현점,,편의점,경기도 성남시 중원구 성남대로 1157,37.433149353607995,127.128577473105,,,,,,
GS25,향남블루점,,편의점,경기도 화성시 향남읍 행정동로 7,37.1247939414016,126.926366271248,,,,,,
GS25,이천신하점,,편의점,경기도 이천시 부발읍 경충대로 2216-10,37.2596379718148,127.480021126372,,,,,,
GS25,상대원으뜸점,,편의점,경기도 성남시 중원구 희망로316번길 5,37.4343557820259,127.159547493224,,,,,,
GS25,의정부중앙역점,,편의점,경기도 의정부시 호국로 1319,37.743932425518,127.05073952069999,,,,,,
GS25,분당정자일로점,분당정자일로분당정자일로점,편의점,경기도 성남시 분당구 정자일로 197,37.36801854596529,127.105509839969,,,,,,
GS25,안중백병원점,,편의점,경기도 평택시 안중읍 서동대로 1931-21,37.0034133164431,126.95863612679301,,,,,,
GS25,시흥포동점,,편의점,경기도 시흥시 신현로38번길 12,37.4066499923599,126.7846329284,,,,,,
맥도날드, ,수원APOD,프렌차이즈,"경기도 수원시 팔달구 덕영대로 924, (매산로1가)",37.2656675906019,127.00008813955601,,,,,,
GS25,역곡중앙점,,편의점,경기도 부천시 부일로699번길 24,37.4856043220283,126.807213097819,,,,,,
GS25,포천송우점,포천송우점,편의점,경기도 포천시 소흘읍 봉솔로 14-1,37.8251153513403,127.140107459452,,,,,,
GS25,진안명가점,,편의점,경기도 화성시 효행로1040번길 13,37.2127504456464,127.04199990512501,,,,,,
GS25,문산중앙점,,편의점,경기도 파주시 문산읍 독산로 42,37.857905086785294,126.78367010392999,,,,,,
GS25,편의점,,편의점,"경기도 수원시 영통구 동수원로537번길 35-2, (원천동)",37.27452441796439,127.046957028683,,,,,,
GS25,용인으뜸점,,편의점,경기도 용인시 처인구 중부대로1313번길 6-13,37.2362469635571,127.19256445155399,,,,,,
GS25,도곡효담점,,편의점,경기도 남양주시 와부읍 덕소로 244,37.5790613215169,127.223260912334,,,,,,
GS25,화성석우점,,편의점,경기도 화성시 삼성전자로 12,37.218718792568005,127.07873523061701,,,,,,
GS25,문형중앙점,문형중앙점,편의점,경기도 광주시 오포읍 오포로 596-1,37.3511757837135,127.21306335191002,,,,,,
GS25,오산한솔점,,편의점,경기도 오산시 오산로 93,37.135180027259494,127.068719098973,,,,,,
GS25,포천대로점,,편의점,경기도 포천시 내촌면 금강로 2696,37.806755724784395,127.25283899021099,,,,,,
GS25,광교참누리점,,편의점,경기도 수원시 영통구 웰빙타운로 50,37.306413481178396,127.046904401245,,,,,,
GS25,용인일산점,,편의점,경기도 용인시 처인구 모현면 문현로 331,37.3375220092779,127.244511302162,,,,,,
GS25,광교웅진점,,편의점,경기도 용인시 수지구 법조로 251,37.3012344935063,127.07443598491501,,,,,,
GS25,의정보람점,,편의점,경기도 의정부시 태평로118번길 22,37.7429130611375,127.052828942516,,,,,,
GS25,시화황금점,,편의점,경기도 시흥시 공단2대로140번길 25,37.328372451597296,126.707012041087,,,,,,
GS25,동탄데시앙점,,편의점,경기도 화성시 동탄숲속로 66,37.2080046542547,127.054711459989,,,,,,
스타벅스, ,,프렌차이즈,경기도 평택시 안중읍 안현로서4길 44,36.9861948993652,126.92649750652001,,,,,,
GS25,선부제일점,선부제일점,편의점,경기도 안산시 단원구 석수로4길 13,37.3417605244828,126.806309513079,,,,,,
스타벅스, ,,프렌차이즈,경기도 양주시 남면 개나리11길 1,37.896238266366296,126.97440482654899,,,,,,
GS25,동탄위브점,,편의점,경기도 화성시 동탄공원로 21-40,37.203608637104395,127.05375241934601,,,,,,
GS25,의왕주공점,,편의점,경기도 의왕시 포일세거리로 94,37.403028789015,126.98643991270201,,,,,,
GS25,보라제일점,,편의점,경기도 용인시 기흥구 한보라2로14번길 7-21,37.253415826139204,127.112390153389,,,,,,
GS25,신곡본점,,편의점,경기도 의정부시 회룡로 221,37.726863718497206,127.05818356619899,,,,,,
GS25,빌리지점,,편의점,경기도 성남시 중원구 광명로110번길 8,37.435494132246795,127.14116102978399,,,,,,
GS25,평택유보라점,,편의점,경기도 평택시 현신6길 23,36.9995598103557,127.14770674033701,,,,,,
GS25,군포역점,,편의점,경기도 군포시 군포로 533,37.3537748395143,126.94606105503,,,,,,
GS25, ,시,편의점,경기도 용인시 처인구 모현면 백옥대로2366번길 3-1,37.334805950377,127.249582866476,,,,,,
GS25,킨텍스1호점,,편의점,경기도 고양시 일산서구 한류월드로 408,37.6689206152486,126.74578558826599,,,,,,
GS25,보정누리점,,편의점,경기도 용인시 기흥구 죽전로 20,37.3200273231764,127.11035502415399,,,,,,
GS25,양주자이점,,편의점,경기도 양주시 삼숭로38번길 80,37.796063596321,127.105812637255,,,,,,
맥도날드,포천점,,프렌차이즈,경기도 포천시 호국로 894,37.84578608988021,127.16029688381599,,,,,,
스타벅스, ,,프렌차이즈,경기도 평택시 송탄2로 20-7,37.0709201510151,127.057157809741,,,,,,
GS25,산본타운점,,편의점,경기도 군포시 고산로 695,37.372177032294395,126.9352585356,,,,,,
GS25,부천세종병원점,,편의점,경기도 부천시 호현로489번길 20,37.4808292908144,126.792183579964,,,,,,
GS25,시용인신갈점,,편의점,경기도 용인시 기흥구 신구로53번길 3,37.2767308066654,127.10927488121,,,,,,
GS25,퇴계원주공점,,편의점,경기도 남양주시 퇴계원면 도제원로 116,37.658447553903706,127.1456148128,,,,,,
GS25,부천역점,,편의점,경기도 부천시 부천로9번길 54,37.4857224832916,126.77996088817301,,,,,,
GS25,상동삼익점,,편의점,경기도 부천시 장말로 102,37.493336927593106,126.753273809337,,,,,,
GS25,평택미주점,,편의점,경기도 평택시 이충로 72,37.0644324975825,127.068617643008,,,,,,
GS25,향남상신,,편의점,경기도 화성시 향남읍 상신하길로135번길 5-1,37.105737703314205,126.89908268941002,,,,,,
GS25,의정호암점,의정호암점,편의점,경기도 의정부시 호암로 31,37.7034799176347,127.046696796294,,,,,,
GS25,문산주공점,문산주공점,편의점,경기도 파주시 문산읍 방촌로 1658,37.8620228811366,126.780215819321,,,,,,
GS25,시화스카이점,,편의점,경기도 시흥시 공단2대로190번길 36,37.325389822264704,126.710301377986,,,,,,
GS25,구리해원점,구리해원점,편의점,경기도 구리시 안골로 54,37.59716035740129,127.137188640108,,,,,,
GS25,평내타운,,편의점,경기도 남양주시 평내로29번길 49,37.6458559495861,127.23564280318199,,,,,,
GS25, ,구리동원,편의점,경기도 구리시 동구릉로85번길 15,37.6082682183346,127.133220814305,,,,,,
탐앤탐스, ,,프렌차이즈,경기도 의정부시 신흥로 251,37.7386067920849,127.042865467995,,,,,,
탐앤탐스, ,,프렌차이즈,경기도 고양시 일산동구 무궁화로 32-34,37.661306151044606,126.768785211993,,,,,,
GS25,성남중원점,,편의점,경기도 성남시 중원구 산성대로 244-13,37.439002613071104,127.14534731620701,,,,,,
GS25,소하안서점,,편의점,경기도 광명시 오리로 396-1,37.437793229964,126.879784051174,,,,,,
GS25,죽전에이스점,죽전에이스점,편의점,경기도 용인시 수지구 현암로 165,37.3318792360763,127.12764967149799,,,,,,
GS25,부천팰리스점,,편의점,경기도 부천시 중동로 107,37.4917114060954,126.76579623328001,,,,,,
스타벅스, ,,프렌차이즈,경기도 성남시 분당구 성남대로 168,37.3508829268316,127.109483121938,,,,,,
이디야, ,,프렌차이즈,경기도 안산시 상록구 한양대학로 55,37.298024069901,126.834454274399,,,,,,
GS25,편의점,,편의점,"경기도 수원시 권선구 정조로 533, (세류동)",37.2568392560395,127.011094648743,,,,,,
GS25,고양내유점,,편의점,경기도 고양시 덕양구 유산길 22,37.7261524985537,126.845450629235,,,,,,
맥도날드, ,동탄S,프렌차이즈,경기도 화성시 효행로 1260,37.2210875450366,127.060238461224,,,,,,
GS25,이천로또,이천로또,편의점,경기도 이천시 백사면 이여로 124,37.3087450881481,127.465085333717,,,,,,
GS25,향남주공점,,편의점,경기도 화성시 향남읍 행정남로 99-16,37.124598339035394,126.917737706569,,,,,,
GS25,삼송그린점,,편의점,경기도 고양시 덕양구 동산2로 15,37.6443398516831,126.884723270023,,,,,,
GS25,하남신장점,,편의점,경기도 하남시 하남대로801번길 48,37.5389913717689,127.207008857001,,,,,,
GS25,영통해광점,영통해광점,편의점,"경기도 수원시 영통구 매영로 396, (영통동)",37.2490372174237,127.074815565926,,,,,,
GS25,원종사랑점,원종사랑점,편의점,경기도 부천시 원종로65번길 14-23,37.524788464219604,126.807019370524,,,,,,
GS25,행신단비점,행신단비점,편의점,경기도 고양시 덕양구 무원로 17,37.6148620259845,126.83111224261002,,,,,,
GS25,의정태영점,의정태영점,편의점,경기도 의정부시 행복로 23-1,37.7408922330758,127.049155846597,,,,,,
GS25,이천사동점,,편의점,경기도 이천시 대월면 대월로 878,37.2332375846022,127.49514638206999,,,,,,
GS25,일번가점,,편의점,경기도 안양시 만안구 만안로 208-1,37.39949622915729,126.924187675024,,,,,,
GS25,장안연무점,장안연무점,편의점,"경기도 수원시 장안구 창룡대로151번길 2, (연무동)",37.2915517014447,127.02662180471,,,,,,
GS25, ,향남주공,편의점,경기도 화성시 향남읍 행정남로 99-15,37.1255389439016,126.91515851708701,,,,,,
GS25,편의점,편의점,편의점,"경기도 수원시 팔달구 인계로68번길 1, (인계동)",37.268661132532394,127.02516894060301,,,,,,
GS25,하남푸르지오점,하남푸르지오점,편의점,경기도 하남시 덕풍동로 111-33,37.552579622532605,127.20839279100099,,,,,,
GS25,하안으뜸점,하안으뜸점,편의점,경기도 광명시 하안로 237,37.456702074192,126.88219215094401,,,,,,
GS25,김포장기점,,편의점,경기도 김포시 김포한강2로 222,37.6453732686347,126.66099325081899,,,,,,
GS25,호원두산점,호원두산점,편의점,경기도 의정부시 백석로 62,37.7297542787769,127.044533611527,,,,,,
GS25,금곡신성점,금곡신성점,편의점,경기도 남양주시 홍유릉로248번길 42,37.6259023329214,127.202302662141,,,,,,
GS25,기흥영덕점,기흥영덕점,편의점,경기도 용인시 기흥구 흥덕4로 26,37.2739521745676,127.091063497182,,,,,,
GS25,심곡타운점,,편의점,경기도 부천시 부천로 38,37.4877084987468,126.78381835996299,,,,,,
GS25, ,시,편의점,경기도 김포시 김포한강2로 103,37.63637919173021,126.673572204449,,,,,,
GS25,분당미켈란점,분당미켈란점,편의점,경기도 성남시 분당구 정자일로 100,37.358600167978004,127.107619672722,,,,,,
GS25,안양그랜드점,안양그랜드점,편의점,경기도 안양시 동안구 관악대로373번길 12,37.405171526017206,126.964396598832,,,,,,
GS25,새꽃마을점,,편의점,경기도 파주시 새꽃로 35,37.7538127037209,126.767968684346,,,,,,
GS25,고잔사랑점,,편의점,경기도 안산시 단원구 다리간3길 17-2,37.313950855921995,126.824021269333,,,,,,
GS25,스카이빌점,스카이빌점,편의점,경기도 성남시 중원구 둔촌대로293번길 9,37.43061273199179,127.150222281383,,,,,,
GS25,덕이하이파크점,,편의점,경기도 고양시 일산서구 하이파크3로 111,37.6997636027701,126.751026605956,,,,,,
GS25,안성중대점,,편의점,경기도 안성시 대덕면 대학3길 30,37.001944321951704,127.226126309085,,,,,,
GS25,성남산성역점,,편의점,경기도 성남시 중원구 산성대로 446-1,37.45146279510521,127.16020380664301,,,,,,
GS25,심곡2점,심곡2점,편의점,경기도 부천시 경인로216번길 62,37.480602544113104,126.77889089117201,,,,,,
GS25,금오브래뉴점,금오브래뉴점,편의점,경기도 의정부시 호국로 1369,37.74608188390889,127.05472888662099,,,,,,
GS25,창현주공점,창현주공점,편의점,경기도 남양주시 화도읍 녹촌로 11,37.644787146957995,127.301604124903,,,,,,
GS25,금정역점,,편의점,경기도 군포시 금산로 74,37.3687787829889,126.93812900251699,,,,,,
GS25,수지초입점,수지초입점,편의점,경기도 용인시 수지구 문인로 56,37.3333402725988,127.09660010857701,,,,,,
